~Version
 VERS              .         2.0                           : CWLS LOG ASCII STANDARD - VERSION 2.0
 WRAP              .         NO                            : ONE LINE PER DEPTH STEP
 DLM               .         SPACE                         : DELIMITING CHARACTER(SPACE TAB OR COMMA)
~Well Information
#_______________________________________________________________________________
#
#PARAMETER_NAME    .UNIT     VALUE                         : DESCRIPTION
#_______________________________________________________________________________
STRT               .ft       3452.0000                     : First reference value
STOP               .ft       9050.0000                     : Last reference value
STEP               .ft       0.5000                        : Step increment
NULL               .         -999.25                       : Missing value
COMP               .         University of Utah            : Company
WELL               .         FORGE 56-32 Monitor Well      : Well name
FLD                .         Wildcat                       : Field
LOC                .                                       : Location
CNTY               .                                       : County
STAT               .         Utah                          : State
CTRY               .         USA                           : Country
SRVC               .         Schlumberger                  : Service Company
DATE               .         27-Feb-2021                   : Date
API                .                                       : API number
APD                .ft       30.4                          : Elevation of Depth Reference (LMF) Above Permanent Datum
BHS                .         OPEN                          : Borehole Status (Open or Cased Hole)
BHT                .degF     306                           : Bottom Hole Temperature
BLI                .ft       9105                          : Bottom Log Interval
BS                 .in       8.75                          : Bit Size
CBDR               .ft       3100                          : Casing Bottom of Driller
CBLO               .ft       3100                          : Logger Casing Shoe Depth
CSIZ               .in       9.625                         : Current Casing Size
CWEI               .lbm/ft   36                            : Casing Weight
DCS                .         27-Feb-2021                   : Date Circulation Stopped
DFD                .lbm/gal  9                             : Drilling Fluid Density
DFT                .         WBM                           : Drilling Fluid Type
DLAB               .         27-Feb-2021                   : Date Logger At Bottom
EDF                .ft       5451.72                       : Elevation of Drill Floor
EGL                .ft       5451.72                       : Elevation of Ground Level
EKB                .ft       5482.12                       : Elevation of Kelly Bushing
EPD                .ft       5451.72                       : Elevation of Permanent Datum (PDAT) above Mean Sea Level
LMF                .         KB                            : Logging Measured From (Name of Logging Elevation Reference)
LUL                .         Fort Morgan, CO               : Logging Unit Location
LUN                .         2801                          : Logging Unit Number
LATI               .         38° 30' 14.512" N             : Latitude
LONG               .         112° 53' 11.354" W            : Longitude
MCST               .degF     68                            : Mudcake Sample Temperature
MFST               .degF     68                            : Mud Filtrate Sample Temperature
MRT                .degF     -999.25                       : Maximum Recorded Temperature
MST                .degF     68                            : Mud Sample Temperature
PDAT               .         GL                            : Permanent Datum
PRODUCER-CODE      .         440                           : 
PRODUCER-NAME      .         Schlumberger                  : 
RMB                .ohm.m    0.04781149                    : Resistivity of Mud at Bottom Hole Temperature
RMCS               .ohm.m    -999.25                       : Resistivity of Mud Cake Sample
RMFS               .ohm.m    0.15                          : Resistivity of Mud Filtrate Sample
RMS                .ohm.m    0.2                           : Resistivity of Mud Sample
RUN                .         ONE                           : Run Number
TCS                .         16_45_00                      : Time Circulation Stopped
TDD                .ft       9145                          : Driller Total Depth
TDL                .ft       9145                          : Logger Total Depth
TLAB               .         17_00_00                      : Time Logger At Bottom
TLI                .ft       3500                          : Top Log Interval
~Parameter Information Block
#_______________________________________________________________________________
#
#PARAMETER_NAME    .UNIT     VALUE                         : DESCRIPTION
#_______________________________________________________________________________
SET                .         1PnS-Aniso_DM_las             : 
TLFamily_AZIM      .         Hole Azimuth                  : 
TLFamily_BS_RM     .         Bit Size                      : 
TLFamily_C1_24     .         Caliper                       : 
TLFamily_DEVI      .         Hole Deviation                : 
TLFamily_DTCO_MPS_R .         Compressional Slowness        : 
TLFamily_DTSH_FAST .         Fast Shear Slowness           : 
TLFamily_DTSH_SLOW .         Slow Shear Slowness           : 
TLFamily_FSA_ERRMINUS .         Fast Shear Azimuth            : 
TLFamily_FSA_ERRPLUS .         Fast Shear Azimuth            : 
TLFamily_FSA_NAZ_IN .         Fast Shear Azimuth            : 
TLFamily_FSA_TOH   .         Fast Shear Azimuth            : 
TLFamily_GR_TMG    .         Gamma Ray                     : 
TLFamily_MAXXENE_OVERALL .         Acoustic Energy               : 
TLFamily_MD        .         Measured Depth                : 
TLFamily_MINXENE_OVERALL .         Acoustic Energy               : 
TLFamily_PR_Fast   .         Poisson Ratio (Dynamic)       : 
TLFamily_RB        .         Relative Bearing              : 
TLFamily_SENSOR_AZIM_QCI .         Sensor Azimuth                : 
TLFamily_SLOANI    .         Acoustic Anisotropy           : 
TLFamily_SPHI      .         Total Porosity                : 
TLFamily_TDIF_ALT_OVERALL .         Time Interval                 : 
TLFamily_TDIF_ORG_OVERALL .         Time Interval                 : 
TLFamily_TIMANI    .         Acoustic Anisotropy           : 
TLFamily_TNPH      .         Thermal Neutron Porosity      : 
TLFamily_TW_B_L6   .         Travel Time                   : 
TLFamily_TW_E_L6   .         Travel Time                   : 
TLFamily_VPVS_Fast .         VpVs (Compressional To Shear) Ratio: 
TLFamily_XENEDIF   .         Acoustic Energy               : 
~Curve Information
#_______________________________________________________________________________
#
#LOGNAME           .UNIT     LOG_ID                        : DESCRIPTION
#_______________________________________________________________________________
MD                 .ft                                     : Measured Depth 
AZIM               .deg                                    : Measured Azimuth 
BS_RM              .in                                     : Bit Size 
C1_24              .in                                     : Caliper Section 1, Pads 2-4 
DEVI               .deg                                    : Hole Deviation 
DTCO_MPS_R         .us/ft                                  : Compressional slowness 
DTSH_FAST          .us/ft                                  : Shear slowness 
DTSH_SLOW          .us/ft                                  : Shear slowness 
FSA_ERRMINUS       .deg                                    : Fast shear azimuth error minus(TOH REF90) - swapped 
FSA_ERRPLUS        .deg                                    : Fast shear azimuth error plus(TOH REF90) - swapped 
FSA_NAZ_IN         .deg                                    : Fast Shear Azimuth in Anisotropic Intervals 
FSA_TOH            .deg                                    : Fast shear azimuth(TOH REF90) - overall - swapped 
GR_TMG             .gAPI                                   : Gamma Ray 
MAXXENE_OVERALL    .unitless                               : Maximum cross energy - overall 
MINXENE_OVERALL    .unitless                               : Minimum cross energy - overall 
PR_Fast            .unitless                               : Fast Poisson's Ratio 
RB                 .deg                                    : Relative Bearing 
SENSOR_AZIM_QCI    .deg                                    : Tool azimuth for input QC 
SLOANI             .%                                      : Slowness based anisotropy 
SPHI               .ft3/ft3                                : Total porosity from Sonic 
TDIF_ALT_OVERALL   .s                                      : Arrival time difference between fast and slow waves(alternate) - overall - swapped 
TDIF_ORG_OVERALL   .s                                      : Arrival time difference between fast and slow waves(original) - overall - swapped 
TIMANI             .%                                      : Time based anisotropy 
TNPH               .ft3/ft3                                : Thermal Neutron Porosity (Ratio Method) in Selected Lithology 
TW_B_L6            .us                                     : Time window begin - packed 
TW_E_L6            .us                                     : Time window end - packed 
VPVS_Fast          .unitless                               : Fast VPVS 
XENEDIF            .unitless                               : Energy based anisotropy 
~Ascii
# ...
7183.0000  0.0000     8.7500     8.8094     1.7681     53.9299    95.2417    99.7153    26.8405    50.9131    -999.2500  38.8768    86.8928    0.0805     0.0381     0.2640     293.4500   293.8925   4.5894     0.0448     -0.0003    0.0000     1.5644     0.0609     947.9258   1947.9257  1.7660     4.2361    
7183.5000  0.0000     8.7500     8.8190     1.7966     53.9929    94.5133    99.5612    27.6203    49.0418    -999.2500  38.3311    87.1929    0.0859     0.0369     0.2578     293.4500   293.8775   5.2019     0.0452     -0.0003    0.0000     1.6439     0.0590     947.0972   1947.0972  1.7505     4.9001    
7184.0000  0.0000     8.7500     8.8171     1.8343     53.8282    93.8132    99.0414    28.3891    47.2599    -999.2500  37.8245    103.7010   0.0909     0.0354     0.2546     293.4100   293.8000   5.4219     0.0440     -0.0003    0.0000     1.7216     0.0588     946.0825   1946.0825  1.7428     5.5548    
7184.5000  0.0000     8.7500     8.8829     1.7749     53.5221    93.2752    98.3635    29.0135    46.0054    -999.2500  37.5094    84.9418    0.0951     0.0340     0.2546     293.4100   293.6600   5.3104     0.0419     -0.0003    0.0000     1.7951     0.0615     944.5554   1944.5554  1.7427     6.1151    
7185.0000  0.0000     8.7500     8.9104     1.7492     53.1906    93.0019    97.8475    29.4904    45.3667    -999.2500  37.4286    86.6427    0.0979     0.0331     0.2569     293.3800   293.5868   5.0779     0.0395     -0.0003    0.0000     1.8523     0.0612     942.7516   1942.7517  1.7485     6.4791    
7185.5000  0.0000     8.7500     8.8690     1.8864     52.8500    93.0584    97.3953    29.8927    45.0157    -999.2500  37.4542    90.1944    0.1002     0.0325     0.2620     293.3800   293.5168   4.5543     0.0371     -0.0003    0.0000     1.9102     0.0557     940.2421   1940.2422  1.7608     6.7683    
7186.0000  0.0000     8.7500     8.8016     1.8174     52.5785    93.5075    96.8181    30.2192    44.7648    -999.2500  37.4920    98.2983    0.1026     0.0322     0.2688     293.3800   293.4500   3.4789     0.0352     -0.0003    0.0000     1.9751     0.0493     936.6804   1936.6804  1.7784     7.0434    
7186.5000  0.0000     8.7500     8.8053     1.9755     52.5122    94.1817    96.2919    30.3496    44.9665    -999.2500  37.6580    105.6520   0.1035     0.0320     0.2744     293.3800   293.4307   2.2157     0.0347     -0.0003    0.0000     2.0196     0.0439     933.1559   1933.1560  1.7935     7.1461    
7187.0000  0.0000     8.7500     8.7598     1.7873     52.6978    94.6495    95.9939    30.3104    45.4652    -999.2500  37.8878    148.1229   0.1029     0.0320     0.2754     293.4200   293.4106   1.4104     0.0361     -0.0003    0.0000     2.0341     0.0386     930.4639   1930.4639  1.7961     7.0894    
7187.5000  0.0000     8.7500     8.7459     1.8700     52.8551    94.9037    95.8292    29.9669    46.3962    -999.2500  38.1816    158.9281   0.1006     0.0323     0.2752     293.4200   293.4025   0.9704     0.0372     -0.0003    0.0000     2.0147     0.0347     928.0088   1928.0088  1.7955     6.8384    
7188.0000  0.0000     8.7500     8.7340     2.0248     52.7843    94.9843    95.6696    29.1411    48.2648    -999.2500  38.7029    181.4393   0.0965     0.0333     0.2766     293.5400   293.3875   0.7189     0.0367     -0.0003    0.0000     1.9622     0.0309     925.7705   1925.7705  1.7995     6.3141    
7188.5000  0.0000     8.7500     8.7297     1.8527     52.7679    94.7696    95.5843    27.9761    50.8898    -999.2500  39.4330    200.6488   0.0909     0.0353     0.2753     293.5400   293.3800   0.8560     0.0365     -0.0003    0.0000     1.8780     0.0299     924.7636   1924.7637  1.7960     5.5554    
7189.0000  0.0000     8.7500     8.7356     1.9173     52.9178    94.3738    95.6449    26.8854    54.1528    -999.2500  40.5191    205.4510   0.0846     0.0380     0.2707     293.4000   293.3800   1.3379     0.0376     -0.0003    0.0000     1.7846     0.0292     924.9768   1924.9768  1.7834     4.6597    
7189.5000  0.0000     8.7500     8.7194     1.8291     53.0220    93.8786    95.8824    26.6404    58.0785    -999.2500  42.3594    194.3456   0.0784     0.0408     0.2658     293.4000   293.3900   2.1119     0.0383     -0.0003    0.0000     1.7198     0.0301     926.0502   1926.0503  1.7706     3.7534    
7190.0000  0.0000     8.7500     8.7352     1.8454     53.0242    93.3869    96.1588    28.3061    63.0171    -999.2500  45.6616    199.2981   0.0723     0.0435     0.2621     293.6300   293.4100   2.9248     0.0384     -0.0003    0.0000     1.7103     0.0299     927.8174   1927.8174  1.7612     2.8807    
7190.5000  0.0000     8.7500     8.7288     2.0803     52.9911    93.0589    96.3294    33.5681    69.7316    -999.2500  51.6498    181.5893   0.0673     0.0462     0.2601     293.6300   293.4500   3.4538     0.0381     -0.0003    0.0000     1.7728     0.0300     930.3541   1930.3540  1.7561     2.1074    
7191.0000  0.0000     8.7500     8.7277     1.8148     52.9739    92.9754    96.4326    43.6707    78.4618    -999.2500  61.0663    177.6874   0.0650     0.0473     0.2597     294.0900   293.5100   3.6506     0.0380     -0.0003    0.0000     1.8805     0.0323     933.0675   1933.0674  1.7551     1.7693    
7191.5000  0.0000     8.7500     8.7271     1.9334     52.9797    93.0353    96.6021    55.4166    86.1277    -999.2500  70.7722    194.1956   0.0669     0.0446     0.2600     294.0900   293.5050   3.7617     0.0380     -0.0003    0.0000     1.9724     0.0386     935.5643   1935.5642  1.7561     2.2308    
7192.0000  0.0000     8.7500     8.7360     1.8550     52.9683    93.0863    96.8747    63.8788    89.2232    -999.2500  76.5510    187.0920   0.0722     0.0393     0.2606     294.1900   293.4350   3.9886     0.0380     -0.0003    0.0000     2.0531     0.0483     938.1008   1938.1008  1.7574     3.2910    
7192.5000  0.0000     8.7500     8.7765     1.8918     52.9172    93.1338    97.1517    69.0052    89.1808    -999.2500  79.0930    162.8301   0.0789     0.0342     0.2616     294.1900   293.4575   4.2231     0.0376     -0.0003    0.0000     2.1511     0.0563     940.5502   1940.5502  1.7600     4.4628    
7193.0000  0.0000     8.7500     8.7665     1.6879     52.8531    93.3244    97.2875    72.4274    88.5075    -999.2500  80.4674    149.4736   0.0853     0.0306     0.2639     294.2500   293.5725   4.1582     0.0372     -0.0003    0.0000     2.2508     0.0609     942.8672   1942.8672  1.7657     5.4787    
7193.5000  0.0000     8.7500     8.7437     1.7042     52.7988    93.7322    97.2466    74.2859    87.6842    -999.2500  80.9851    141.9698   0.0908     0.0284     0.2676     294.2500   293.7450   3.6804     0.0368     -0.0003    0.0000     2.3340     0.0628     945.3702   1945.3702  1.7753     6.2472    
7194.0000  0.0000     8.7500     8.7433     2.0116     52.7405    94.2531    97.1981    75.2608    86.9681    -999.2500  81.1145    147.6726   0.0954     0.0270     0.2721     294.6300   293.9750   3.0765     0.0364     -0.0003    0.0000     2.4010     0.0643     948.2150   1948.2151  1.7871     6.8389    
7194.5000  0.0000     8.7500     8.7441     1.8396     52.6435    94.7115    97.3127    76.0483    86.5376    -999.2500  81.2929    114.2062   0.0993     0.0261     0.2765     294.6300   294.1150   2.7092     0.0357     -0.0003    0.0000     2.4519     0.0648     951.4245   1951.4246  1.7991     7.3215    
7195.0000  0.0000     8.7500     8.7472     1.9106     52.5466    95.0024    97.4904    76.7940    86.3144    -999.2500  81.5542    98.5985    0.1026     0.0254     0.2796     294.8200   294.1650   2.5850     0.0350     -0.0002    0.0000     2.4899     0.0654     954.4210   1954.4209  1.8080     7.7210    
7195.5000  0.0000     8.7500     8.7603     2.0054     52.5401    95.0998    97.5047    77.4553    86.2469    -999.2500  81.8511    106.0121   0.1054     0.0249     0.2803     294.8200   294.2050   2.4972     0.0349     -0.0002    0.0000     2.5196     0.0620     956.6718   1956.6718  1.8100     8.0464    
