~Version
 VERS              .         2.0                           : CWLS LOG ASCII STANDARD - VERSION 2.0
 WRAP              .         NO                            : ONE LINE PER DEPTH STEP
 DLM               .         SPACE                         : DELIMITING CHARACTER(SPACE TAB OR COMMA)
~Well Information
#_______________________________________________________________________________
#
#PARAMETER_NAME    .UNIT     VALUE                         : DESCRIPTION
#_______________________________________________________________________________
STRT               .ft       3452.0000                     : First reference value
STOP               .ft       9050.0000                     : Last reference value
STEP               .ft       0.5000                        : Step increment
NULL               .         -999.25                       : Missing value
COMP               .         University of Utah            : Company
WELL               .         FORGE 56-32 Monitor Well      : Well name
FLD                .         Wildcat                       : Field
LOC                .                                       : Location
CNTY               .                                       : County
STAT               .         Utah                          : State
CTRY               .         USA                           : Country
SRVC               .         Schlumberger                  : Service Company
DATE               .         27-Feb-2021                   : Date
API                .                                       : API number
APD                .ft       30.4                          : Elevation of Depth Reference (LMF) Above Permanent Datum
BHS                .         OPEN                          : Borehole Status (Open or Cased Hole)
BHT                .degF     306                           : Bottom Hole Temperature
BLI                .ft       9105                          : Bottom Log Interval
BS                 .in       8.75                          : Bit Size
CBDR               .ft       3100                          : Casing Bottom of Driller
CBLO               .ft       3100                          : Logger Casing Shoe Depth
CSIZ               .in       9.625                         : Current Casing Size
CWEI               .lbm/ft   36                            : Casing Weight
DCS                .         27-Feb-2021                   : Date Circulation Stopped
DFD                .lbm/gal  9                             : Drilling Fluid Density
DFT                .         WBM                           : Drilling Fluid Type
DLAB               .         27-Feb-2021                   : Date Logger At Bottom
EDF                .ft       5451.72                       : Elevation of Drill Floor
EGL                .ft       5451.72                       : Elevation of Ground Level
EKB                .ft       5482.12                       : Elevation of Kelly Bushing
EPD                .ft       5451.72                       : Elevation of Permanent Datum (PDAT) above Mean Sea Level
LMF                .         KB                            : Logging Measured From (Name of Logging Elevation Reference)
LUL                .         Fort Morgan, CO               : Logging Unit Location
LUN                .         2801                          : Logging Unit Number
LATI               .         38° 30' 14.512" N             : Latitude
LONG               .         112° 53' 11.354" W            : Longitude
MCST               .degF     68                            : Mudcake Sample Temperature
MFST               .degF     68                            : Mud Filtrate Sample Temperature
MRT                .degF     -999.25                       : Maximum Recorded Temperature
MST                .degF     68                            : Mud Sample Temperature
PDAT               .         GL                            : Permanent Datum
PRODUCER-CODE      .         440                           : 
PRODUCER-NAME      .         Schlumberger                  : 
RMB                .ohm.m    0.04781149                    : Resistivity of Mud at Bottom Hole Temperature
RMCS               .ohm.m    -999.25                       : Resistivity of Mud Cake Sample
RMFS               .ohm.m    0.15                          : Resistivity of Mud Filtrate Sample
RMS                .ohm.m    0.2                           : Resistivity of Mud Sample
RUN                .         ONE                           : Run Number
TCS                .         16_45_00                      : Time Circulation Stopped
TDD                .ft       9145                          : Driller Total Depth
TDL                .ft       9145                          : Logger Total Depth
TLAB               .         17_00_00                      : Time Logger At Bottom
TLI                .ft       3500                          : Top Log Interval
~Parameter Information Block
#_______________________________________________________________________________
#
#PARAMETER_NAME    .UNIT     VALUE                         : DESCRIPTION
#_______________________________________________________________________________
SET                .         1PnS-Aniso_DM_las             : 
TLFamily_AZIM      .         Hole Azimuth                  : 
TLFamily_BS_RM     .         Bit Size                      : 
TLFamily_C1_24     .         Caliper                       : 
TLFamily_DEVI      .         Hole Deviation                : 
TLFamily_DTCO_MPS_R .         Compressional Slowness        : 
TLFamily_DTSH_FAST .         Fast Shear Slowness           : 
TLFamily_DTSH_SLOW .         Slow Shear Slowness           : 
TLFamily_FSA_ERRMINUS .         Fast Shear Azimuth            : 
TLFamily_FSA_ERRPLUS .         Fast Shear Azimuth            : 
TLFamily_FSA_NAZ_IN .         Fast Shear Azimuth            : 
TLFamily_FSA_TOH   .         Fast Shear Azimuth            : 
TLFamily_GR_TMG    .         Gamma Ray                     : 
TLFamily_MAXXENE_OVERALL .         Acoustic Energy               : 
TLFamily_MD        .         Measured Depth                : 
TLFamily_MINXENE_OVERALL .         Acoustic Energy               : 
TLFamily_PR_Fast   .         Poisson Ratio (Dynamic)       : 
TLFamily_RB        .         Relative Bearing              : 
TLFamily_SENSOR_AZIM_QCI .         Sensor Azimuth                : 
TLFamily_SLOANI    .         Acoustic Anisotropy           : 
TLFamily_SPHI      .         Total Porosity                : 
TLFamily_TDIF_ALT_OVERALL .         Time Interval                 : 
TLFamily_TDIF_ORG_OVERALL .         Time Interval                 : 
TLFamily_TIMANI    .         Acoustic Anisotropy           : 
TLFamily_TNPH      .         Thermal Neutron Porosity      : 
TLFamily_TW_B_L6   .         Travel Time                   : 
TLFamily_TW_E_L6   .         Travel Time                   : 
TLFamily_VPVS_Fast .         VpVs (Compressional To Shear) Ratio: 
TLFamily_XENEDIF   .         Acoustic Energy               : 
~Curve Information
#_______________________________________________________________________________
#
#LOGNAME           .UNIT     LOG_ID                        : DESCRIPTION
#_______________________________________________________________________________
MD                 .ft                                     : Measured Depth 
AZIM               .deg                                    : Measured Azimuth 
BS_RM              .in                                     : Bit Size 
C1_24              .in                                     : Caliper Section 1, Pads 2-4 
DEVI               .deg                                    : Hole Deviation 
DTCO_MPS_R         .us/ft                                  : Compressional slowness 
DTSH_FAST          .us/ft                                  : Shear slowness 
DTSH_SLOW          .us/ft                                  : Shear slowness 
FSA_ERRMINUS       .deg                                    : Fast shear azimuth error minus(TOH REF90) - swapped 
FSA_ERRPLUS        .deg                                    : Fast shear azimuth error plus(TOH REF90) - swapped 
FSA_NAZ_IN         .deg                                    : Fast Shear Azimuth in Anisotropic Intervals 
FSA_TOH            .deg                                    : Fast shear azimuth(TOH REF90) - overall - swapped 
GR_TMG             .gAPI                                   : Gamma Ray 
MAXXENE_OVERALL    .unitless                               : Maximum cross energy - overall 
MINXENE_OVERALL    .unitless                               : Minimum cross energy - overall 
PR_Fast            .unitless                               : Fast Poisson's Ratio 
RB                 .deg                                    : Relative Bearing 
SENSOR_AZIM_QCI    .deg                                    : Tool azimuth for input QC 
SLOANI             .%                                      : Slowness based anisotropy 
SPHI               .ft3/ft3                                : Total porosity from Sonic 
TDIF_ALT_OVERALL   .s                                      : Arrival time difference between fast and slow waves(alternate) - overall - swapped 
TDIF_ORG_OVERALL   .s                                      : Arrival time difference between fast and slow waves(original) - overall - swapped 
TIMANI             .%                                      : Time based anisotropy 
TNPH               .ft3/ft3                                : Thermal Neutron Porosity (Ratio Method) in Selected Lithology 
TW_B_L6            .us                                     : Time window begin - packed 
TW_E_L6            .us                                     : Time window end - packed 
VPVS_Fast          .unitless                               : Fast VPVS 
XENEDIF            .unitless                               : Energy based anisotropy 
~Ascii
# ...
8301.0000  0.0000     8.7500     8.6899     1.2229     49.1372    87.9733    89.0907    108.3990   117.0670   -999.2500  112.7330   216.7067   0.1594     0.0294     0.2733     338.3800   335.7000   1.2621     0.0109     0.0000     -0.0003    -29.1439   0.0798     912.6307   1912.6307  1.7904     13.0027   
8301.5000  0.0000     8.7500     8.6830     1.2086     48.9005    87.8249    89.4755    108.3005   117.4030   -999.2500  112.8517   100.2493   0.1660     0.0299     0.2753     338.3800   335.8400   1.8619     0.0092     0.0000     -0.0003    -28.7134   0.0932     914.1731   1914.1731  1.7960     13.6115   
8302.0000  0.0000     8.7500     8.7163     0.9951     49.0444    87.8194    89.2386    108.0911   117.6262   -999.2500  112.8587   38.4189    0.1718     0.0306     0.2734     338.6900   336.0450   1.6031     0.0102     0.0000     -0.0003    -28.2614   0.0786     916.0758   1916.0758  1.7906     14.1121   
8302.5000  0.0000     8.7500     8.7015     1.2028     49.6149    87.8348    88.9801    107.7266   117.9165   -999.2500  112.8215   37.6685    0.1744     0.0313     0.2657     338.6900   336.3150   1.2955     0.0142     0.0000     -0.0003    -27.9569   0.0673     917.8304   1917.8303  1.7703     14.3143   
8303.0000  0.0000     8.7500     8.7117     1.2463     50.1000    87.8421    89.2932    107.1639   118.4188   -999.2500  112.7913   26.5631    0.1737     0.0318     0.2589     339.0100   336.4539   1.6384     0.0177     0.0000     -0.0003    -27.8248   0.0605     919.2041   1919.2041  1.7533     14.1900   
8303.5000  0.0000     8.7500     8.7136     1.4172     50.1948    87.8552    89.4330    106.4634   119.0947   -999.2500  112.7790   19.2094    0.1707     0.0323     0.2577     339.0100   336.5789   1.7799     0.0184     0.0000     -0.0003    -27.7701   0.0659     920.4006   1920.4006  1.7503     13.8387   
8304.0000  0.0000     8.7500     8.7026     1.2128     50.1334    87.9183    88.7219    105.6340   119.9890   -999.2500  112.8115   22.0609    0.1640     0.0328     0.2591     339.3600   336.7000   0.9099     0.0179     0.0000     -0.0003    -27.7146   0.0686     922.1792   1922.1792  1.7537     13.1138   
8304.5000  0.0000     8.7500     8.7072     1.2503     50.0135    88.0500    89.4019    105.0791   120.6404   -999.2500  112.8598   18.1589    0.1563     0.0330     0.2618     339.3600   336.7900   1.5236     0.0171     0.0000     -0.0003    -27.6657   0.0735     923.7393   1923.7393  1.7605     12.3309   
8305.0000  0.0000     8.7500     8.7458     1.3932     49.8402    88.3592    89.6298    104.7415   121.1251   -999.2500  112.9333   18.3090    0.1476     0.0330     0.2667     339.4900   336.9700   1.4277     0.0158     0.0000     -0.0003    -27.6038   0.0702     925.0508   1925.0508  1.7728     11.4590   
8305.5000  0.0000     8.7500     8.7420     1.2406     49.6333    88.9458    90.3708    104.2863   121.6459   -999.2500  112.9661   22.2109    0.1347     0.0326     0.2739     339.4900   337.1575   1.5893     0.0144     0.0000     -0.0003    -27.5397   0.0572     926.9629   1926.9629  1.7921     10.2036   
8306.0000  0.0000     8.7500     8.7381     1.2344     49.4942    89.7047    91.5458    103.7403   122.0086   -999.2500  112.8745   20.7102    0.1202     0.0322     0.2812     339.7000   337.3525   2.0316     0.0134     0.0000     -0.0003    -27.5239   0.0437     929.4285   1929.4285  1.8124     8.8084    
8306.5000  0.0000     8.7500     8.7214     0.8781     49.5769    90.4388    92.7851    103.3396   122.3985   -999.2500  112.8690   15.3075    0.1060     0.0320     0.2852     339.7000   337.5275   2.5612     0.0140     0.0000     -0.0003    -27.5531   0.0347     932.3916   1932.3916  1.8242     7.4060    
8307.0000  0.0000     8.7500     8.7032     1.1226     49.7616    91.0195    93.7629    103.2701   122.7492   -999.2500  113.0097   16.5081    0.0928     0.0317     0.2868     340.2100   337.6825   2.9693     0.0153     0.0000     -0.0003    -27.6193   0.0326     935.3322   1935.3322  1.8291     6.1121    
8307.5000  0.0000     8.7500     8.7047     1.2343     50.0109    91.5527    94.3969    103.4660   123.1318   -999.2500  113.2989   13.6567    0.0814     0.0312     0.2874     340.2100   337.9150   3.0591     0.0170     0.0000     -0.0003    -27.7277   0.0322     938.0815   1938.0815  1.8307     5.0157    
8308.0000  0.0000     8.7500     8.7144     1.2628     50.4423    92.2521    94.7903    103.8506   124.0203   -999.2500  113.9355   16.6582    0.0720     0.0307     0.2868     340.5600   338.2250   2.7140     0.0201     0.0000     -0.0003    -27.8499   0.0323     940.5718   1940.5718  1.8289     4.1276    
8308.5000  0.0000     8.7500     8.7160     0.7804     50.9397    93.1447    95.0435    104.5586   125.0277   -999.2500  114.7931   15.4576    0.0656     0.0301     0.2866     340.5600   338.4575   2.0179     0.0236     0.0000     -0.0003    -27.8944   0.0325     942.8447   1942.8447  1.8285     3.5478    
8309.0000  0.0000     8.7500     8.7111     1.2198     51.3443    94.0201    95.2661    105.6607   125.5249   -999.2500  115.5928   16.3580    0.0633     0.0293     0.2875     340.8700   338.6125   1.3166     0.0265     0.0000     -0.0003    -27.8071   0.0332     944.9606   1944.9606  1.8312     3.3955    
8309.5000  0.0000     8.7500     8.7124     1.1464     51.6464    94.6361    95.5833    106.8640   125.7936   -999.2500  116.3288   19.5096    0.0631     0.0285     0.2879     340.8700   338.7700   0.9958     0.0286     0.0000     -0.0003    -27.6590   0.0341     946.8005   1946.8005  1.8324     3.4608    
8310.0000  0.0000     8.7500     8.7153     0.7817     51.9058    94.8724    95.9989    108.0669   126.2469   -999.2500  117.1569   20.1099    0.0632     0.0279     0.2864     341.0600   338.9300   1.1803     0.0305     0.0000     -0.0003    -27.5284   0.0344     948.6514   1948.6515  1.8278     3.5357    
8310.5000  0.0000     8.7500     8.7183     1.2081     52.0973    94.7948    96.4076    109.2710   126.9115   -999.2500  118.0912   22.0909    0.0631     0.0275     0.2836     341.0600   339.0975   1.6870     0.0318     0.0000     -0.0003    -27.4330   0.0341     950.8679   1950.8680  1.8196     3.5597    
8311.0000  0.0000     8.7500     8.7301     1.0147     52.1860    94.7639    96.9094    110.7429   127.8290   -999.2500  119.2859   37.5184    0.0619     0.0272     0.2824     341.0300   339.3233   2.2387     0.0324     0.0000     -0.0003    -27.3250   0.0337     954.2673   1954.2673  1.8159     3.4710    
8311.5000  0.0000     8.7500     8.7454     0.9532     52.2201    95.0870    97.1813    96.4115    113.4243   -999.2500  104.9179   30.1648    0.0607     0.0270     0.2841     341.0300   339.4250   2.1785     0.0327     0.0000     -0.0002    -22.4932   0.0330     956.3608   1956.3607  1.8209     3.3687    
8312.0000  0.0000     8.7500     8.7459     0.9796     52.3905    96.0405    97.4585    44.4300    62.0463    -999.2500  53.2382    26.5631    0.0581     0.0267     0.2882     340.8800   339.5425   1.4656     0.0339     -0.0002    -0.0001    -5.8118    0.0323     959.1022   1959.1021  1.8332     3.1412    
8312.5000  0.0000     8.7500     8.7262     1.1254     52.6647    96.6436    97.5332    22.1310    40.4152    -999.2500  31.2731    23.2614    0.0558     0.0264     0.2888     340.8800   339.6475   0.9163     0.0358     -0.0003    0.0000     1.2576     0.0315     960.2828   1960.2827  1.8351     2.9389    
8313.0000  0.0000     8.7500     8.7117     1.1622     52.8872    96.9623    97.5879    22.3616    41.1560    -999.2500  31.7588    27.3134    0.0533     0.0261     0.2883     340.7400   339.8275   0.6431     0.0374     -0.0003    0.0000     1.1827     0.0320     960.6909   1960.6909  1.8334     2.7209    
8313.5000  0.0000     8.7500     8.7152     1.3735     52.9716    97.0681    97.6194    22.3817    42.0111    -999.2500  32.1964    25.6626    0.0506     0.0258     0.2879     340.7400   340.0825   0.5664     0.0380     -0.0003    0.0000     1.1043     0.0332     960.3946   1960.3945  1.8325     2.4762    
