~Version
 VERS              .         2.0                           : CWLS LOG ASCII STANDARD - VERSION 2.0
 WRAP              .         NO                            : ONE LINE PER DEPTH STEP
 DLM               .         SPACE                         : DELIMITING CHARACTER(SPACE TAB OR COMMA)
~Well Information
#_______________________________________________________________________________
#
#PARAMETER_NAME    .UNIT     VALUE                         : DESCRIPTION
#_______________________________________________________________________________
STRT               .ft       3452.0000                     : First reference value
STOP               .ft       9050.0000                     : Last reference value
STEP               .ft       0.5000                        : Step increment
NULL               .         -999.25                       : Missing value
COMP               .         University of Utah            : Company
WELL               .         FORGE 56-32 Monitor Well      : Well name
FLD                .         Wildcat                       : Field
LOC                .                                       : Location
CNTY               .                                       : County
STAT               .         Utah                          : State
CTRY               .         USA                           : Country
SRVC               .         Schlumberger                  : Service Company
DATE               .         27-Feb-2021                   : Date
API                .                                       : API number
APD                .ft       30.4                          : Elevation of Depth Reference (LMF) Above Permanent Datum
BHS                .         OPEN                          : Borehole Status (Open or Cased Hole)
BHT                .degF     306                           : Bottom Hole Temperature
BLI                .ft       9105                          : Bottom Log Interval
BS                 .in       8.75                          : Bit Size
CBDR               .ft       3100                          : Casing Bottom of Driller
CBLO               .ft       3100                          : Logger Casing Shoe Depth
CSIZ               .in       9.625                         : Current Casing Size
CWEI               .lbm/ft   36                            : Casing Weight
DCS                .         27-Feb-2021                   : Date Circulation Stopped
DFD                .lbm/gal  9                             : Drilling Fluid Density
DFT                .         WBM                           : Drilling Fluid Type
DLAB               .         27-Feb-2021                   : Date Logger At Bottom
EDF                .ft       5451.72                       : Elevation of Drill Floor
EGL                .ft       5451.72                       : Elevation of Ground Level
EKB                .ft       5482.12                       : Elevation of Kelly Bushing
EPD                .ft       5451.72                       : Elevation of Permanent Datum (PDAT) above Mean Sea Level
LMF                .         KB                            : Logging Measured From (Name of Logging Elevation Reference)
LUL                .         Fort Morgan, CO               : Logging Unit Location
LUN                .         2801                          : Logging Unit Number
LATI               .         38° 30' 14.512" N             : Latitude
LONG               .         112° 53' 11.354" W            : Longitude
MCST               .degF     68                            : Mudcake Sample Temperature
MFST               .degF     68                            : Mud Filtrate Sample Temperature
MRT                .degF     -999.25                       : Maximum Recorded Temperature
MST                .degF     68                            : Mud Sample Temperature
PDAT               .         GL                            : Permanent Datum
PRODUCER-CODE      .         440                           : 
PRODUCER-NAME      .         Schlumberger                  : 
RMB                .ohm.m    0.04781149                    : Resistivity of Mud at Bottom Hole Temperature
RMCS               .ohm.m    -999.25                       : Resistivity of Mud Cake Sample
RMFS               .ohm.m    0.15                          : Resistivity of Mud Filtrate Sample
RMS                .ohm.m    0.2                           : Resistivity of Mud Sample
RUN                .         ONE                           : Run Number
TCS                .         16_45_00                      : Time Circulation Stopped
TDD                .ft       9145                          : Driller Total Depth
TDL                .ft       9145                          : Logger Total Depth
TLAB               .         17_00_00                      : Time Logger At Bottom
TLI                .ft       3500                          : Top Log Interval
~Parameter Information Block
#_______________________________________________________________________________
#
#PARAMETER_NAME    .UNIT     VALUE                         : DESCRIPTION
#_______________________________________________________________________________
SET                .         1PnS-Aniso_DM_las             : 
TLFamily_AZIM      .         Hole Azimuth                  : 
TLFamily_BS_RM     .         Bit Size                      : 
TLFamily_C1_24     .         Caliper                       : 
TLFamily_DEVI      .         Hole Deviation                : 
TLFamily_DTCO_MPS_R .         Compressional Slowness        : 
TLFamily_DTSH_FAST .         Fast Shear Slowness           : 
TLFamily_DTSH_SLOW .         Slow Shear Slowness           : 
TLFamily_FSA_ERRMINUS .         Fast Shear Azimuth            : 
TLFamily_FSA_ERRPLUS .         Fast Shear Azimuth            : 
TLFamily_FSA_NAZ_IN .         Fast Shear Azimuth            : 
TLFamily_FSA_TOH   .         Fast Shear Azimuth            : 
TLFamily_GR_TMG    .         Gamma Ray                     : 
TLFamily_MAXXENE_OVERALL .         Acoustic Energy               : 
TLFamily_MD        .         Measured Depth                : 
TLFamily_MINXENE_OVERALL .         Acoustic Energy               : 
TLFamily_PR_Fast   .         Poisson Ratio (Dynamic)       : 
TLFamily_RB        .         Relative Bearing              : 
TLFamily_SENSOR_AZIM_QCI .         Sensor Azimuth                : 
TLFamily_SLOANI    .         Acoustic Anisotropy           : 
TLFamily_SPHI      .         Total Porosity                : 
TLFamily_TDIF_ALT_OVERALL .         Time Interval                 : 
TLFamily_TDIF_ORG_OVERALL .         Time Interval                 : 
TLFamily_TIMANI    .         Acoustic Anisotropy           : 
TLFamily_TNPH      .         Thermal Neutron Porosity      : 
TLFamily_TW_B_L6   .         Travel Time                   : 
TLFamily_TW_E_L6   .         Travel Time                   : 
TLFamily_VPVS_Fast .         VpVs (Compressional To Shear) Ratio: 
TLFamily_XENEDIF   .         Acoustic Energy               : 
~Curve Information
#_______________________________________________________________________________
#
#LOGNAME           .UNIT     LOG_ID                        : DESCRIPTION
#_______________________________________________________________________________
MD                 .ft                                     : Measured Depth 
AZIM               .deg                                    : Measured Azimuth 
BS_RM              .in                                     : Bit Size 
C1_24              .in                                     : Caliper Section 1, Pads 2-4 
DEVI               .deg                                    : Hole Deviation 
DTCO_MPS_R         .us/ft                                  : Compressional slowness 
DTSH_FAST          .us/ft                                  : Shear slowness 
DTSH_SLOW          .us/ft                                  : Shear slowness 
FSA_ERRMINUS       .deg                                    : Fast shear azimuth error minus(TOH REF90) - swapped 
FSA_ERRPLUS        .deg                                    : Fast shear azimuth error plus(TOH REF90) - swapped 
FSA_NAZ_IN         .deg                                    : Fast Shear Azimuth in Anisotropic Intervals 
FSA_TOH            .deg                                    : Fast shear azimuth(TOH REF90) - overall - swapped 
GR_TMG             .gAPI                                   : Gamma Ray 
MAXXENE_OVERALL    .unitless                               : Maximum cross energy - overall 
MINXENE_OVERALL    .unitless                               : Minimum cross energy - overall 
PR_Fast            .unitless                               : Fast Poisson's Ratio 
RB                 .deg                                    : Relative Bearing 
SENSOR_AZIM_QCI    .deg                                    : Tool azimuth for input QC 
SLOANI             .%                                      : Slowness based anisotropy 
SPHI               .ft3/ft3                                : Total porosity from Sonic 
TDIF_ALT_OVERALL   .s                                      : Arrival time difference between fast and slow waves(alternate) - overall - swapped 
TDIF_ORG_OVERALL   .s                                      : Arrival time difference between fast and slow waves(original) - overall - swapped 
TIMANI             .%                                      : Time based anisotropy 
TNPH               .ft3/ft3                                : Thermal Neutron Porosity (Ratio Method) in Selected Lithology 
TW_B_L6            .us                                     : Time window begin - packed 
TW_E_L6            .us                                     : Time window end - packed 
VPVS_Fast          .unitless                               : Fast VPVS 
XENEDIF            .unitless                               : Energy based anisotropy 
~Ascii
# ...
6429.0000  0.0000     8.7500     8.7464     0.5776     54.0091    93.1797    93.4896    -1.2030    37.1829    -999.2500  17.9900    311.8535   0.0335     0.0260     0.2470     308.9700   308.9300   0.3320     0.0453     -0.0001    -0.0002    -19.8211   0.0287     936.4052   1936.4052  1.7253     0.7486    
6429.5000  0.0000     8.7500     8.7485     0.4301     54.0996    93.6308    93.8881    15.8936    52.0935    -999.2500  33.9936    334.8147   0.0303     0.0249     0.2494     308.9700   309.1400   0.2744     0.0460     0.0000     -0.0003    -29.1598   0.0303     936.8060   1936.8060  1.7307     0.5446    
6430.0000  0.0000     8.7500     8.7516     0.5201     54.2583    93.9145    94.1726    68.9035    102.5167   -999.2500  85.7101    317.9563   0.0306     0.0233     0.2495     309.3100   309.3100   0.2744     0.0471     -0.0001    -0.0001    -14.0976   0.0308     937.5720   1937.5719  1.7309     0.7236    
6430.5000  0.0000     8.7500     8.7496     0.4897     54.3995    94.2222    94.4844    116.2800   148.3069   -999.2500  132.2934   324.0095   0.0309     0.0225     0.2500     309.3100   309.4700   0.2778     0.0481     -0.0003    0.0000     0.7808     0.0296     938.2732   1938.2732  1.7320     0.8407    
6431.0000  0.0000     8.7500     8.7478     0.6425     54.4922    94.2886    94.6046    116.4332   147.3122   -999.2500  131.8727   317.5564   0.0312     0.0222     0.2492     309.6300   309.6300   0.3346     0.0487     -0.0003    0.0000     0.8198     0.0292     939.0358   1939.0359  1.7303     0.8982    
6431.5000  0.0000     8.7500     8.7451     0.4095     54.5779    93.6362    94.1879    115.5582   145.7842   -999.2500  130.6712   326.1103   0.0310     0.0219     0.2427     309.6300   309.5767   0.5875     0.0493     -0.0003    0.0000     0.8357     0.0309     940.3390   1940.3390  1.7156     0.9185    
6432.0000  0.0000     8.7500     8.7475     0.8236     54.5285    93.1679    93.9806    114.6760   145.0425   -999.2500  129.8593   334.6647   0.0308     0.0218     0.2395     309.5500   309.5100   0.8686     0.0490     -0.0003    0.0000     0.8272     0.0303     941.1915   1941.1915  1.7086     0.9034    
6432.5000  0.0000     8.7500     8.7488     0.5803     54.3119    92.7905    94.0886    112.0884   143.4147   -999.2500  127.7515   328.1616   0.0307     0.0220     0.2394     309.5500   309.4300   1.3893     0.0475     -0.0003    0.0000     0.8100     0.0298     942.6099   1942.6099  1.7085     0.8629    
6433.0000  0.0000     8.7500     8.7578     0.9644     54.1927    92.8491    94.3510    108.7317   140.8951   -999.2500  124.8134   299.9975   0.0308     0.0222     0.2417     309.4300   309.3700   1.6046     0.0466     -0.0003    0.0000     0.8019     0.0273     943.4818   1943.4817  1.7133     0.8525    
6433.5000  0.0000     8.7500     8.7659     0.4351     54.2701    93.0746    94.6748    105.8505   137.2171   -999.2500  121.5338   314.8548   0.0314     0.0220     0.2424     309.4300   309.3100   1.7047     0.0472     -0.0003    0.0000     0.8129     0.0275     944.0966   1944.0966  1.7150     0.9396    
6434.0000  0.0000     8.7500     8.7783     0.2969     54.4732    93.4189    95.1299    104.3515   133.1652   -999.2500  118.7584   269.8329   0.0326     0.0212     0.2424     309.3100   309.3750   1.8149     0.0486     -0.0003    0.0000     0.8468     0.0278     944.6841   1944.6842  1.7150     1.1313    
6434.5000  0.0000     8.7500     8.7838     0.4261     54.5881    93.7740    95.5237    103.8048   129.4777   -999.2500  116.6412   250.1731   0.0341     0.0202     0.2437     309.3100   309.4400   1.8486     0.0494     -0.0003    0.0000     0.9056     0.0269     945.4017   1945.4017  1.7178     1.3919    
6435.0000  0.0000     8.7500     8.7742     0.7904     54.6126    93.9032    95.2908    104.0175   125.4679   -999.2500  114.7427   243.2696   0.0370     0.0188     0.2444     309.4400   309.3867   1.4668     0.0496     -0.0003    0.0000     1.0316     0.0272     946.4679   1946.4679  1.7194     1.8229    
6435.5000  0.0000     8.7500     8.7567     0.6741     54.5739    93.7985    94.8338    104.3388   123.6315   -999.2500  113.9851   233.7151   0.0393     0.0184     0.2441     309.4400   309.2833   1.0977     0.0493     -0.0003    0.0000     1.1198     0.0275     947.2578   1947.2578  1.7187     2.0904    
6436.0000  0.0000     8.7500     8.7439     0.4602     54.3343    93.5974    94.1855    105.0848   121.6720   -999.2500  113.3784   228.1123   0.0431     0.0182     0.2459     309.3600   309.1300   0.6264     0.0476     -0.0003    0.0000     1.2504     0.0285     948.6945   1948.6945  1.7226     2.4875    
6436.5000  0.0000     8.7500     8.7607     0.4730     53.8251    93.5467    94.0546    105.9460   120.4787   -999.2500  113.2123   242.6693   0.0459     0.0182     0.2525     309.3600   309.2800   0.5415     0.0440     -0.0003    0.0000     1.3296     0.0282     950.1959   1950.1959  1.7380     2.7705    
6437.0000  0.0000     8.7500     8.7733     0.7646     53.3633    93.4641    93.9898    106.9105   119.3416   -999.2500  113.1261   271.6337   0.0486     0.0180     0.2582     309.1300   309.4300   0.5610     0.0408     -0.0003    0.0000     1.4050     0.0284     951.5540   1951.5540  1.7515     3.0537    
6437.5000  0.0000     8.7500     8.7621     0.4313     53.0307    93.3623    93.8923    107.5770   118.5037   -999.2500  113.0404   272.6843   0.0509     0.0179     0.2618     309.1300   309.4600   0.5661     0.0384     -0.0003    0.0000     1.4718     0.0293     953.0264   1953.0264  1.7605     3.2941    
6438.0000  0.0000     8.7500     8.7417     0.5543     52.8139    93.3038    93.7707    108.0028   117.9162   -999.2500  112.9595   251.5237   0.0527     0.0179     0.2643     309.4300   309.4900   0.4992     0.0369     -0.0003    0.0000     1.5302     0.0295     954.3503   1954.3503  1.7667     3.4857    
6438.5000  0.0000     8.7500     8.7310     0.4178     52.6283    93.3580    93.7763    108.2028   117.4680   -999.2500  112.8354   261.7286   0.0547     0.0180     0.2671     309.4300   309.5567   0.4470     0.0356     -0.0003    0.0000     1.5947     0.0297     955.6172   1955.6172  1.7739     3.6751    
6439.0000  0.0000     8.7500     8.7412     0.6538     52.5385    93.5562    94.1018    108.1985   117.4608   -999.2500  112.8297   250.3233   0.0559     0.0181     0.2697     309.4900   309.5100   0.5815     0.0349     -0.0003    0.0000     1.6320     0.0285     956.4022   1956.4023  1.7807     3.7752    
6439.5000  0.0000     8.7500     8.7557     0.5231     52.4855    93.7766    94.4449    108.2848   117.4781   -999.2500  112.8815   244.6204   0.0562     0.0183     0.2719     309.4900   309.4300   0.7101     0.0346     -0.0003    0.0000     1.6349     0.0278     956.4973   1956.4973  1.7867     3.7813    
6440.0000  0.0000     8.7500     8.7561     0.7834     52.5598    94.0371    94.7326    108.4341   117.4599   -999.2500  112.9470   204.5506   0.0560     0.0185     0.2728     309.5900   309.1650   0.7369     0.0351     -0.0003    0.0000     1.6235     0.0251     956.1860   1956.1860  1.7891     3.7543    
6440.5000  0.0000     8.7500     8.7520     0.3823     52.9794    94.2866    94.9159    108.6761   117.6039   -999.2500  113.1400   190.8940   0.0555     0.0185     0.2693     309.5900   308.9000   0.6652     0.0380     -0.0003    0.0000     1.6035     0.0241     955.4548   1955.4548  1.7797     3.6966    
6441.0000  0.0000     8.7500     8.7453     0.4198     53.3336    94.3553    94.9007    108.9887   117.9753   -999.2500  113.4820   202.4496   0.0547     0.0183     0.2652     309.4300   308.8700   0.5764     0.0405     -0.0003    0.0000     1.5891     0.0234     954.8096   1954.8096  1.7692     3.6476    
6441.5000  0.0000     8.7500     8.7711     0.7092     53.6767    93.9253    94.4669    108.9370   118.2314   -999.2500  113.5842   211.6040   0.0536     0.0180     0.2575     309.4300   308.8367   0.5750     0.0430     -0.0003    0.0000     1.5739     0.0257     954.4221   1954.4220  1.7498     3.5607    
