~Version
 VERS              .         2.0                           : CWLS LOG ASCII STANDARD - VERSION 2.0
 WRAP              .         NO                            : ONE LINE PER DEPTH STEP
 DLM               .         SPACE                         : DELIMITING CHARACTER(SPACE TAB OR COMMA)
~Well Information
#_______________________________________________________________________________
#
#PARAMETER_NAME    .UNIT     VALUE                         : DESCRIPTION
#_______________________________________________________________________________
STRT               .ft       3452.0000                     : First reference value
STOP               .ft       9050.0000                     : Last reference value
STEP               .ft       0.5000                        : Step increment
NULL               .         -999.25                       : Missing value
COMP               .         University of Utah            : Company
WELL               .         FORGE 56-32 Monitor Well      : Well name
FLD                .         Wildcat                       : Field
LOC                .                                       : Location
CNTY               .                                       : County
STAT               .         Utah                          : State
CTRY               .         USA                           : Country
SRVC               .         Schlumberger                  : Service Company
DATE               .         27-Feb-2021                   : Date
API                .                                       : API number
APD                .ft       30.4                          : Elevation of Depth Reference (LMF) Above Permanent Datum
BHS                .         OPEN                          : Borehole Status (Open or Cased Hole)
BHT                .degF     306                           : Bottom Hole Temperature
BLI                .ft       9105                          : Bottom Log Interval
BS                 .in       8.75                          : Bit Size
CBDR               .ft       3100                          : Casing Bottom of Driller
CBLO               .ft       3100                          : Logger Casing Shoe Depth
CSIZ               .in       9.625                         : Current Casing Size
CWEI               .lbm/ft   36                            : Casing Weight
DCS                .         27-Feb-2021                   : Date Circulation Stopped
DFD                .lbm/gal  9                             : Drilling Fluid Density
DFT                .         WBM                           : Drilling Fluid Type
DLAB               .         27-Feb-2021                   : Date Logger At Bottom
EDF                .ft       5451.72                       : Elevation of Drill Floor
EGL                .ft       5451.72                       : Elevation of Ground Level
EKB                .ft       5482.12                       : Elevation of Kelly Bushing
EPD                .ft       5451.72                       : Elevation of Permanent Datum (PDAT) above Mean Sea Level
LMF                .         KB                            : Logging Measured From (Name of Logging Elevation Reference)
LUL                .         Fort Morgan, CO               : Logging Unit Location
LUN                .         2801                          : Logging Unit Number
LATI               .         38° 30' 14.512" N             : Latitude
LONG               .         112° 53' 11.354" W            : Longitude
MCST               .degF     68                            : Mudcake Sample Temperature
MFST               .degF     68                            : Mud Filtrate Sample Temperature
MRT                .degF     -999.25                       : Maximum Recorded Temperature
MST                .degF     68                            : Mud Sample Temperature
PDAT               .         GL                            : Permanent Datum
PRODUCER-CODE      .         440                           : 
PRODUCER-NAME      .         Schlumberger                  : 
RMB                .ohm.m    0.04781149                    : Resistivity of Mud at Bottom Hole Temperature
RMCS               .ohm.m    -999.25                       : Resistivity of Mud Cake Sample
RMFS               .ohm.m    0.15                          : Resistivity of Mud Filtrate Sample
RMS                .ohm.m    0.2                           : Resistivity of Mud Sample
RUN                .         ONE                           : Run Number
TCS                .         16_45_00                      : Time Circulation Stopped
TDD                .ft       9145                          : Driller Total Depth
TDL                .ft       9145                          : Logger Total Depth
TLAB               .         17_00_00                      : Time Logger At Bottom
TLI                .ft       3500                          : Top Log Interval
~Parameter Information Block
#_______________________________________________________________________________
#
#PARAMETER_NAME    .UNIT     VALUE                         : DESCRIPTION
#_______________________________________________________________________________
SET                .         1PnS-Aniso_DM_las             : 
TLFamily_AZIM      .         Hole Azimuth                  : 
TLFamily_BS_RM     .         Bit Size                      : 
TLFamily_C1_24     .         Caliper                       : 
TLFamily_DEVI      .         Hole Deviation                : 
TLFamily_DTCO_MPS_R .         Compressional Slowness        : 
TLFamily_DTSH_FAST .         Fast Shear Slowness           : 
TLFamily_DTSH_SLOW .         Slow Shear Slowness           : 
TLFamily_FSA_ERRMINUS .         Fast Shear Azimuth            : 
TLFamily_FSA_ERRPLUS .         Fast Shear Azimuth            : 
TLFamily_FSA_NAZ_IN .         Fast Shear Azimuth            : 
TLFamily_FSA_TOH   .         Fast Shear Azimuth            : 
TLFamily_GR_TMG    .         Gamma Ray                     : 
TLFamily_MAXXENE_OVERALL .         Acoustic Energy               : 
TLFamily_MD        .         Measured Depth                : 
TLFamily_MINXENE_OVERALL .         Acoustic Energy               : 
TLFamily_PR_Fast   .         Poisson Ratio (Dynamic)       : 
TLFamily_RB        .         Relative Bearing              : 
TLFamily_SENSOR_AZIM_QCI .         Sensor Azimuth                : 
TLFamily_SLOANI    .         Acoustic Anisotropy           : 
TLFamily_SPHI      .         Total Porosity                : 
TLFamily_TDIF_ALT_OVERALL .         Time Interval                 : 
TLFamily_TDIF_ORG_OVERALL .         Time Interval                 : 
TLFamily_TIMANI    .         Acoustic Anisotropy           : 
TLFamily_TNPH      .         Thermal Neutron Porosity      : 
TLFamily_TW_B_L6   .         Travel Time                   : 
TLFamily_TW_E_L6   .         Travel Time                   : 
TLFamily_VPVS_Fast .         VpVs (Compressional To Shear) Ratio: 
TLFamily_XENEDIF   .         Acoustic Energy               : 
~Curve Information
#_______________________________________________________________________________
#
#LOGNAME           .UNIT     LOG_ID                        : DESCRIPTION
#_______________________________________________________________________________
MD                 .ft                                     : Measured Depth 
AZIM               .deg                                    : Measured Azimuth 
BS_RM              .in                                     : Bit Size 
C1_24              .in                                     : Caliper Section 1, Pads 2-4 
DEVI               .deg                                    : Hole Deviation 
DTCO_MPS_R         .us/ft                                  : Compressional slowness 
DTSH_FAST          .us/ft                                  : Shear slowness 
DTSH_SLOW          .us/ft                                  : Shear slowness 
FSA_ERRMINUS       .deg                                    : Fast shear azimuth error minus(TOH REF90) - swapped 
FSA_ERRPLUS        .deg                                    : Fast shear azimuth error plus(TOH REF90) - swapped 
FSA_NAZ_IN         .deg                                    : Fast Shear Azimuth in Anisotropic Intervals 
FSA_TOH            .deg                                    : Fast shear azimuth(TOH REF90) - overall - swapped 
GR_TMG             .gAPI                                   : Gamma Ray 
MAXXENE_OVERALL    .unitless                               : Maximum cross energy - overall 
MINXENE_OVERALL    .unitless                               : Minimum cross energy - overall 
PR_Fast            .unitless                               : Fast Poisson's Ratio 
RB                 .deg                                    : Relative Bearing 
SENSOR_AZIM_QCI    .deg                                    : Tool azimuth for input QC 
SLOANI             .%                                      : Slowness based anisotropy 
SPHI               .ft3/ft3                                : Total porosity from Sonic 
TDIF_ALT_OVERALL   .s                                      : Arrival time difference between fast and slow waves(alternate) - overall - swapped 
TDIF_ORG_OVERALL   .s                                      : Arrival time difference between fast and slow waves(original) - overall - swapped 
TIMANI             .%                                      : Time based anisotropy 
TNPH               .ft3/ft3                                : Thermal Neutron Porosity (Ratio Method) in Selected Lithology 
TW_B_L6            .us                                     : Time window begin - packed 
TW_E_L6            .us                                     : Time window end - packed 
VPVS_Fast          .unitless                               : Fast VPVS 
XENEDIF            .unitless                               : Energy based anisotropy 
~Ascii
# ...
3829.0000  0.0000     8.7500     9.3210     0.9871     53.5704    99.8518    100.5856   68.9300    85.3145    -999.2500  77.1222    62.5808    0.1416     0.0452     0.2979     305.7900   305.8000   0.7322     0.0422     0.0000     -0.0003    -27.8178   0.0920     964.7863   1964.7863  1.8639     9.6395    
3829.5000  0.0000     8.7500     9.2364     0.7993     53.2564    98.2794    99.0919    70.9329    84.7610    -999.2500  77.8469    60.0296    0.1582     0.0477     0.2921     305.7900   305.5000   0.8233     0.0400     0.0000     -0.0003    -27.1724   0.0888     963.5829   1963.5829  1.8454     11.0457   
3830.0000  0.0000     8.7500     9.1787     0.8781     52.8742    96.6613    97.7397    72.5714    84.9846    -999.2500  78.7780    60.2296    0.1703     0.0497     0.2865     305.8800   305.2000   1.1095     0.0373     0.0000     -0.0003    -26.8032   0.0822     962.6477   1962.6477  1.8281     12.0584   
3830.5000  0.0000     8.7500     9.2006     0.9405     52.6302    95.2363    96.0054    73.3685    85.5384    -999.2500  79.4535    57.9285    0.1759     0.0505     0.2802     305.8800   304.9550   0.8044     0.0356     0.0000     -0.0003    -26.8261   0.0832     962.6964   1962.6964  1.8095     12.5408   
3831.0000  0.0000     8.7500     9.2318     0.7091     52.6369    94.2641    94.4094    73.2653    85.8532    -999.2500  79.5592    63.3312    0.1763     0.0505     0.2735     305.4600   304.7100   0.1540     0.0356     0.0000     -0.0003    -27.2781   0.0815     963.2037   1963.2037  1.7908     12.5793   
3831.5000  0.0000     8.7500     9.2156     0.8844     52.8129    94.0895    94.2240    72.7976    86.2212    -999.2500  79.5094    70.2346    0.1730     0.0510     0.2700     305.4600   305.1400   0.1428     0.0369     0.0000     -0.0003    -27.9967   0.0850     963.5040   1963.5042  1.7816     12.2011   
3832.0000  0.0000     8.7500     9.2154     0.9425     52.9673    94.9013    94.9473    72.3942    86.8819    -999.2500  79.6381    62.7308    0.1689     0.0519     0.2738     305.1200   305.5700   0.0484     0.0380     0.0000     -0.0003    -28.5117   0.0831     964.4734   1964.4734  1.7917     11.6946   
3832.5000  0.0000     8.7500     9.2061     0.7917     53.0306    96.3901    96.7238    72.0970    87.3618    -999.2500  79.7294    68.8839    0.1667     0.0531     0.2830     305.1200   305.6800   0.3456     0.0384     0.0000     -0.0003    -28.8597   0.0829     965.6833   1965.6833  1.8176     11.3624   
3833.0000  0.0000     8.7500     9.2056     1.0809     53.0627    97.9377    97.9559    72.2095    87.3652    -999.2500  79.7874    62.1306    0.1665     0.0531     0.2922     305.0300   305.7900   0.0186     0.0386     0.0000     -0.0003    -29.0848   0.0837     967.3336   1967.3336  1.8457     11.3413   
3833.5000  0.0000     8.7500     9.2094     0.5659     53.0990    99.1093    100.0790   71.8996    87.1982    -999.2500  79.5489    61.8304    0.1626     0.0519     0.2987     305.0300   305.8350   0.9737     0.0389     0.0000     -0.0003    -29.2619   0.0860     969.2362   1969.2362  1.8665     11.0735   
3834.0000  0.0000     8.7500     9.2670     1.0845     53.0842    99.8037    100.7863   70.7370    87.4743    -999.2500  79.1057    67.6833    0.1526     0.0514     0.3027     303.5600   305.8800   0.9797     0.0388     0.0000     -0.0003    -29.5481   0.0853     971.0513   1971.0513  1.8801     10.1201   
3834.5000  0.0000     8.7500     9.2795     0.7091     53.0792    100.1661   101.0657   69.6388    88.1997    -999.2500  78.9193    62.5808    0.1389     0.0501     0.3048     303.5600   305.6700   0.8941     0.0387     0.0000     -0.0003    -29.8020   0.0847     973.6725   1973.6725  1.8871     8.8854    
3835.0000  0.0000     8.7500     9.2496     0.7660     53.2158    100.4889   101.2865   68.2304    88.3686    -999.2500  78.2995    68.2836    0.1242     0.0472     0.3051     302.8500   305.4600   0.7906     0.0397     0.0000     -0.0003    -29.8933   0.0858     975.9435   1975.9436  1.8883     7.6935    
3835.5000  0.0000     8.7500     9.2228     0.8029     53.4833    101.0455   101.6553   66.2265    87.1461    -999.2500  76.6863    72.0354    0.1134     0.0448     0.3054     302.8500   305.2900   0.6017     0.0416     0.0000     -0.0003    -29.7985   0.0909     977.1943   1977.1943  1.8893     6.8641    
3836.0000  0.0000     8.7500     9.2533     0.7091     53.8480    101.8651   102.4588   64.3867    85.5047    -999.2500  74.9457    61.2302    0.1066     0.0431     0.3061     303.3600   305.1200   0.5812     0.0442     0.0000     -0.0003    -29.6010   0.0954     977.9787   1977.9788  1.8917     6.3445    
3836.5000  0.0000     8.7500     9.2849     0.7508     54.2189    102.6344   103.5932   63.0221    85.8319    -999.2500  74.4270    64.5318    0.0997     0.0432     0.3064     303.3600   305.0750   0.9299     0.0468     0.0000     -0.0003    -29.4212   0.0953     978.3668   1978.3667  1.8930     5.6550    
3837.0000  0.0000     8.7500     9.2839     0.9400     54.5219    102.8926   104.4091   61.2175    87.0678    -999.2500  74.1426    67.5332    0.0938     0.0462     0.3048     303.1600   305.0300   1.4631     0.0490     0.0000     -0.0003    -29.2940   0.0938     978.4641   1978.4641  1.8872     4.7567    
3837.5000  0.0000     8.7500     9.2862     0.7387     54.7149    102.3629   104.2666   58.9294    87.3538    -999.2500  73.1416    63.4812    0.0879     0.0486     0.3000     303.1600   304.2950   1.8426     0.0503     0.0000     -0.0003    -29.3261   0.0934     977.9369   1977.9369  1.8708     3.9295    
3838.0000  0.0000     8.7500     9.3191     0.6257     54.4983    101.1390   103.1325   56.7153    87.3937    -999.2500  72.0545    63.0310    0.0798     0.0481     0.2954     302.6400   303.5600   1.9518     0.0488     0.0000     -0.0003    -29.4730   0.0930     977.8870   1977.8870  1.8558     3.1640    
3838.5000  0.0000     8.7500     9.2721     0.6277     53.7469    99.5933    101.5372   53.6413    87.1488    -999.2500  70.3951    71.5852    0.0705     0.0481     0.2945     302.6400   303.2050   1.9330     0.0435     0.0000     -0.0003    -29.6714   0.0886     977.4572   1977.4573  1.8530     2.2411    
3839.0000  0.0000     8.7500     9.2717     0.6820     52.8939    98.1594    100.1694   49.8951    86.4037    -999.2500  68.1494    74.2865    0.0622     0.0484     0.2954     302.8100   302.8500   2.0269     0.0374     0.0000     -0.0003    -29.8611   0.0852     976.9915   1976.9915  1.8558     1.3781    
3839.5000  0.0000     8.7500     9.2666     0.7446     52.4302    97.2275    99.4095    47.3449    85.8784    -999.2500  66.6117    73.6863    0.0572     0.0482     0.2950     302.8100   302.9775   2.2194     0.0342     0.0000     -0.0003    -29.9664   0.0843     977.3108   1977.3108  1.8544     0.9076    
3840.0000  0.0000     8.7500     9.2205     0.6425     52.4348    96.6485    98.9590    46.2295    86.2369    -999.2500  66.2332    72.1855    0.0549     0.0476     0.2914     303.0100   303.2325   2.3623     0.0342     0.0000     -0.0003    -30.0714   0.0863     977.4265   1977.4265  1.8432     0.7259    
3840.5000  0.0000     8.7500     9.2124     0.7418     52.7988    96.9578    98.9021    53.3221    95.8776    -999.2500  74.5998    62.2806    0.0515     0.0469     0.2892     303.0100   303.2600   1.9854     0.0368     0.0000     -0.0002    -25.1828   0.0837     977.6054   1977.6055  1.8364     0.4575    
3841.0000  0.0000     8.7500     9.2475     0.7998     53.1120    97.9640    99.4171    66.9783    109.9128   -999.2500  88.4455    76.5377    0.0505     0.0461     0.2918     302.8800   303.1067   1.4724     0.0390     -0.0001    -0.0001    -15.0618   0.0831     976.9989   1976.9989  1.8445     0.4374    
3841.5000  0.0000     8.7500     9.3189     0.7063     53.8285    100.0122   100.7703   87.7654    128.4966   -999.2500  108.1310   62.4307    0.0513     0.0439     0.2961     302.8800   302.7700   0.7551     0.0440     -0.0003    0.0000     0.3704     0.0875     974.0773   1974.0773  1.8580     0.7458    
