~Version
 VERS              .         2.0                           : CWLS LOG ASCII STANDARD - VERSION 2.0
 WRAP              .         NO                            : ONE LINE PER DEPTH STEP
 DLM               .         SPACE                         : DELIMITING CHARACTER(SPACE TAB OR COMMA)
~Well Information
#_______________________________________________________________________________
#
#PARAMETER_NAME    .UNIT     VALUE                         : DESCRIPTION
#_______________________________________________________________________________
STRT               .ft       3452.0000                     : First reference value
STOP               .ft       9050.0000                     : Last reference value
STEP               .ft       0.5000                        : Step increment
NULL               .         -999.25                       : Missing value
COMP               .         University of Utah            : Company
WELL               .         FORGE 56-32 Monitor Well      : Well name
FLD                .         Wildcat                       : Field
LOC                .                                       : Location
CNTY               .                                       : County
STAT               .         Utah                          : State
CTRY               .         USA                           : Country
SRVC               .         Schlumberger                  : Service Company
DATE               .         27-Feb-2021                   : Date
API                .                                       : API number
APD                .ft       30.4                          : Elevation of Depth Reference (LMF) Above Permanent Datum
BHS                .         OPEN                          : Borehole Status (Open or Cased Hole)
BHT                .degF     306                           : Bottom Hole Temperature
BLI                .ft       9105                          : Bottom Log Interval
BS                 .in       8.75                          : Bit Size
CBDR               .ft       3100                          : Casing Bottom of Driller
CBLO               .ft       3100                          : Logger Casing Shoe Depth
CSIZ               .in       9.625                         : Current Casing Size
CWEI               .lbm/ft   36                            : Casing Weight
DCS                .         27-Feb-2021                   : Date Circulation Stopped
DFD                .lbm/gal  9                             : Drilling Fluid Density
DFT                .         WBM                           : Drilling Fluid Type
DLAB               .         27-Feb-2021                   : Date Logger At Bottom
EDF                .ft       5451.72                       : Elevation of Drill Floor
EGL                .ft       5451.72                       : Elevation of Ground Level
EKB                .ft       5482.12                       : Elevation of Kelly Bushing
EPD                .ft       5451.72                       : Elevation of Permanent Datum (PDAT) above Mean Sea Level
LMF                .         KB                            : Logging Measured From (Name of Logging Elevation Reference)
LUL                .         Fort Morgan, CO               : Logging Unit Location
LUN                .         2801                          : Logging Unit Number
LATI               .         38° 30' 14.512" N             : Latitude
LONG               .         112° 53' 11.354" W            : Longitude
MCST               .degF     68                            : Mudcake Sample Temperature
MFST               .degF     68                            : Mud Filtrate Sample Temperature
MRT                .degF     -999.25                       : Maximum Recorded Temperature
MST                .degF     68                            : Mud Sample Temperature
PDAT               .         GL                            : Permanent Datum
PRODUCER-CODE      .         440                           : 
PRODUCER-NAME      .         Schlumberger                  : 
RMB                .ohm.m    0.04781149                    : Resistivity of Mud at Bottom Hole Temperature
RMCS               .ohm.m    -999.25                       : Resistivity of Mud Cake Sample
RMFS               .ohm.m    0.15                          : Resistivity of Mud Filtrate Sample
RMS                .ohm.m    0.2                           : Resistivity of Mud Sample
RUN                .         ONE                           : Run Number
TCS                .         16_45_00                      : Time Circulation Stopped
TDD                .ft       9145                          : Driller Total Depth
TDL                .ft       9145                          : Logger Total Depth
TLAB               .         17_00_00                      : Time Logger At Bottom
TLI                .ft       3500                          : Top Log Interval
~Parameter Information Block
#_______________________________________________________________________________
#
#PARAMETER_NAME    .UNIT     VALUE                         : DESCRIPTION
#_______________________________________________________________________________
SET                .         1PnS-Aniso_DM_las             : 
TLFamily_AZIM      .         Hole Azimuth                  : 
TLFamily_BS_RM     .         Bit Size                      : 
TLFamily_C1_24     .         Caliper                       : 
TLFamily_DEVI      .         Hole Deviation                : 
TLFamily_DTCO_MPS_R .         Compressional Slowness        : 
TLFamily_DTSH_FAST .         Fast Shear Slowness           : 
TLFamily_DTSH_SLOW .         Slow Shear Slowness           : 
TLFamily_FSA_ERRMINUS .         Fast Shear Azimuth            : 
TLFamily_FSA_ERRPLUS .         Fast Shear Azimuth            : 
TLFamily_FSA_NAZ_IN .         Fast Shear Azimuth            : 
TLFamily_FSA_TOH   .         Fast Shear Azimuth            : 
TLFamily_GR_TMG    .         Gamma Ray                     : 
TLFamily_MAXXENE_OVERALL .         Acoustic Energy               : 
TLFamily_MD        .         Measured Depth                : 
TLFamily_MINXENE_OVERALL .         Acoustic Energy               : 
TLFamily_PR_Fast   .         Poisson Ratio (Dynamic)       : 
TLFamily_RB        .         Relative Bearing              : 
TLFamily_SENSOR_AZIM_QCI .         Sensor Azimuth                : 
TLFamily_SLOANI    .         Acoustic Anisotropy           : 
TLFamily_SPHI      .         Total Porosity                : 
TLFamily_TDIF_ALT_OVERALL .         Time Interval                 : 
TLFamily_TDIF_ORG_OVERALL .         Time Interval                 : 
TLFamily_TIMANI    .         Acoustic Anisotropy           : 
TLFamily_TNPH      .         Thermal Neutron Porosity      : 
TLFamily_TW_B_L6   .         Travel Time                   : 
TLFamily_TW_E_L6   .         Travel Time                   : 
TLFamily_VPVS_Fast .         VpVs (Compressional To Shear) Ratio: 
TLFamily_XENEDIF   .         Acoustic Energy               : 
~Curve Information
#_______________________________________________________________________________
#
#LOGNAME           .UNIT     LOG_ID                        : DESCRIPTION
#_______________________________________________________________________________
MD                 .ft                                     : Measured Depth 
AZIM               .deg                                    : Measured Azimuth 
BS_RM              .in                                     : Bit Size 
C1_24              .in                                     : Caliper Section 1, Pads 2-4 
DEVI               .deg                                    : Hole Deviation 
DTCO_MPS_R         .us/ft                                  : Compressional slowness 
DTSH_FAST          .us/ft                                  : Shear slowness 
DTSH_SLOW          .us/ft                                  : Shear slowness 
FSA_ERRMINUS       .deg                                    : Fast shear azimuth error minus(TOH REF90) - swapped 
FSA_ERRPLUS        .deg                                    : Fast shear azimuth error plus(TOH REF90) - swapped 
FSA_NAZ_IN         .deg                                    : Fast Shear Azimuth in Anisotropic Intervals 
FSA_TOH            .deg                                    : Fast shear azimuth(TOH REF90) - overall - swapped 
GR_TMG             .gAPI                                   : Gamma Ray 
MAXXENE_OVERALL    .unitless                               : Maximum cross energy - overall 
MINXENE_OVERALL    .unitless                               : Minimum cross energy - overall 
PR_Fast            .unitless                               : Fast Poisson's Ratio 
RB                 .deg                                    : Relative Bearing 
SENSOR_AZIM_QCI    .deg                                    : Tool azimuth for input QC 
SLOANI             .%                                      : Slowness based anisotropy 
SPHI               .ft3/ft3                                : Total porosity from Sonic 
TDIF_ALT_OVERALL   .s                                      : Arrival time difference between fast and slow waves(alternate) - overall - swapped 
TDIF_ORG_OVERALL   .s                                      : Arrival time difference between fast and slow waves(original) - overall - swapped 
TIMANI             .%                                      : Time based anisotropy 
TNPH               .ft3/ft3                                : Thermal Neutron Porosity (Ratio Method) in Selected Lithology 
TW_B_L6            .us                                     : Time window begin - packed 
TW_E_L6            .us                                     : Time window end - packed 
VPVS_Fast          .unitless                               : Fast VPVS 
XENEDIF            .unitless                               : Energy based anisotropy 
~Ascii
# ...
7547.0000  0.0000     8.7500     8.8907     1.8849     55.2492    104.1711   105.2102   92.6375    103.5451   -999.2500  98.0913    113.6059   0.1331     0.0309     0.3043     297.9900   297.0675   0.9925     0.0541     -0.0003    0.0000     2.6681     0.0707     968.7423   1968.7423  1.8855     10.2154   
7547.5000  0.0000     8.7500     8.8653     2.0726     54.8613    103.6865   104.4712   92.7023    104.5951   -999.2500  98.6487    93.3459    0.1268     0.0314     0.3056     297.9900   297.1425   0.7539     0.0514     -0.0003    0.0000     2.5681     0.0788     967.8895   1967.8895  1.8900     9.5366    
7548.0000  0.0000     8.7500     8.8665     1.8646     54.3671    103.6112   104.2506   92.9428    105.7141   -999.2500  99.3285    80.5897    0.1189     0.0315     0.3100     297.7400   297.2400   0.6152     0.0479     -0.0003    0.0000     2.4618     0.0903     967.1351   1967.1350  1.9058     8.7416    
7548.5000  0.0000     8.7500     8.8944     1.8051     53.8313    103.8602   104.4270   93.0482    106.8822   -999.2500  99.9652    88.3935    0.1094     0.0312     0.3163     297.7400   297.3600   0.5443     0.0441     -0.0003    0.0000     2.3282     0.0990     965.9351   1965.9351  1.9294     7.8187    
7549.0000  0.0000     8.7500     8.9497     1.7273     53.5178    104.1108   104.6370   92.8138    108.1591   -999.2500  100.4865   94.6965    0.0989     0.0312     0.3204     297.9000   297.4700   0.5041     0.0419     -0.0003    0.0000     2.1566     0.1016     963.8436   1963.8436  1.9454     6.7715    
7549.5000  0.0000     8.7500     8.9482     1.6378     53.5340    104.0215   104.4976   92.0795    109.3958   -999.2500  100.7376   87.7932    0.0890     0.0322     0.3199     297.9000   297.5700   0.4566     0.0420     -0.0003    0.0000     1.9372     0.0988     961.1298   1961.1298  1.9431     5.6825    
7550.0000  0.0000     8.7500     8.8709     1.9398     53.6230    103.4575   103.9055   90.8152    110.1785   -999.2500  100.4968   87.7632    0.0802     0.0338     0.3163     297.8600   297.7125   0.4321     0.0426     -0.0003    0.0000     1.6843     0.0888     958.7539   1958.7539  1.9294     4.6360    
7550.5000  0.0000     8.7500     8.8830     1.9995     53.5821    102.4752   102.9778   89.1543    110.3395   -999.2500  99.7469    93.7961    0.0728     0.0355     0.3119     297.8600   297.8975   0.4893     0.0423     -0.0003    0.0000     1.4640     0.0848     956.9214   1956.9214  1.9125     3.7229    
7551.0000  0.0000     8.7500     8.8799     1.9330     53.4309    100.9762   101.6004   87.5869    110.2857   -999.2500  98.9363    112.7055   0.0676     0.0373     0.3056     297.7400   297.9275   0.6163     0.0412     -0.0003    0.0000     1.3201     0.0793     955.6418   1955.6418  1.8898     3.0362    
7551.5000  0.0000     8.7500     8.8764     1.8146     53.1630    99.4588    100.1836   86.7947    110.3722   -999.2500  98.5834    114.8065   0.0654     0.0387     0.3000     297.7400   297.8025   0.7261     0.0393     -0.0003    0.0000     1.2499     0.0754     955.1802   1955.1802  1.8708     2.6641    
7552.0000  0.0000     8.7500     8.9001     2.0599     52.6960    97.3066    98.1091    87.6004    111.9773   -999.2500  99.7888    115.5568   0.0674     0.0409     0.2925     297.9300   297.7400   0.8214     0.0360     -0.0003    0.0000     1.1619     0.0662     955.2764   1955.2764  1.8466     2.6555    
7552.5000  0.0000     8.7500     8.8869     1.6539     52.1741    94.3497    95.3350    89.5215    114.2492   -999.2500  101.8853   110.6045   0.0738     0.0438     0.2798     297.9300   297.8200   1.0389     0.0323     -0.0003    0.0000     0.9980     0.0619     955.0292   1955.0292  1.8084     2.9997    
7553.0000  0.0000     8.7500     8.9053     1.8453     51.8688    92.2167    93.0521    90.9387    115.4185   -999.2500  103.1786   134.6663   0.0846     0.0480     0.2686     298.0900   297.9000   0.9018     0.0302     -0.0003    0.0000     0.8272     0.0617     954.2583   1954.2583  1.7779     3.6617    
7553.5000  0.0000     8.7500     8.9334     1.6989     51.7847    91.3484    91.9379    90.5395    115.3787   -999.2500  102.9591   137.1674   0.0957     0.0546     0.2632     298.0900   297.8900   0.6433     0.0296     -0.0003    0.0000     0.6722     0.0631     953.9275   1953.9275  1.7640     4.1097    
7554.0000  0.0000     8.7500     8.8765     1.6039     51.8276    91.4732    92.5107    88.0588    113.9634   -999.2500  101.0111   147.0723   0.1077     0.0657     0.2636     298.2500   297.8700   1.1277     0.0299     -0.0003    0.0000     0.4625     0.0628     954.9365   1954.9365  1.7650     4.2012    
7554.5000  0.0000     8.7500     8.8559     1.6141     52.1321    92.9780    94.7575    85.6650    112.6165   -999.2500  99.1407    140.0190   0.1248     0.0808     0.2707     298.2500   297.8300   1.8958     0.0321     -0.0003    0.0000     0.2350     0.0677     957.7769   1957.7769  1.7835     4.3955    
7555.0000  0.0000     8.7500     8.8546     1.7594     52.4105    94.3121    96.4459    84.9257    112.2297   -999.2500  98.5777    117.5078   0.1345     0.0889     0.2766     298.2300   297.7987   2.2372     0.0340     -0.0003    0.0000     0.1379     0.0723     959.7860   1959.7860  1.7995     4.5612    
7555.5000  0.0000     8.7500     8.9152     1.9528     53.4533    98.7224    101.7228   85.4799    112.3813   -999.2500  98.9306    108.6534   0.1569     0.1023     0.2926     298.2300   297.7400   2.9938     0.0414     -0.0003    0.0000     0.0614     0.0809     964.9633   1964.9631  1.8469     5.4564    
7556.0000  0.0000     8.7500     8.9719     1.4665     54.4506    103.3728   105.9962   86.5528    112.2218   -999.2500  99.3873    102.9507   0.1822     0.1129     0.3080     297.9800   297.8350   2.5060     0.0484     -0.0003    0.0000     0.0583     0.0803     973.0338   1973.0338  1.8985     6.9333    
7556.5000  0.0000     8.7500     8.9472     1.6618     55.7531    110.1863   111.4725   88.0935    111.4011   -999.2500  99.7473    55.5273    0.2215     0.1283     0.3279     297.9800   297.9700   1.1605     0.0577     -0.0003    0.0000     0.0432     0.0853     990.3591   1990.3591  1.9763     9.3210    
7557.0000  0.0000     8.7500     8.8968     1.8750     57.0769    114.5997   115.5420   88.6207    110.7119   -999.2500  99.6663    61.0800    0.2482     0.1404     0.3351     297.8400   298.0500   0.8189     0.0670     -0.0003    0.0000     0.0237     0.0863     1002.7731  2002.7732  2.0078     10.7823   
7557.5000  0.0000     8.7500     8.8976     2.0956     59.0292    118.2139   119.0408   88.4400    110.1685   -999.2500  99.3043    69.1841    0.2691     0.1523     0.3339     297.8400   298.0973   0.6970     0.0808     -0.0004    0.0000     0.0217     0.0893     1012.3898  2012.3899  2.0026     11.6731   
7558.0000  0.0000     8.7500     9.0269     1.7866     61.2712    121.3719   123.5954   87.5707    109.5723   -999.2500  98.5715    72.0355    0.2857     0.1650     0.3290     297.6600   298.1773   1.8153     0.0967     -0.0003    0.0000     0.0638     0.0907     1021.0081  2021.0081  1.9809     12.0698   
7558.5000  0.0000     8.7500     9.1265     2.0360     63.1310    125.7912   129.4515   86.3884    109.2340   -999.2500  97.8112    77.2380    0.3042     0.1811     0.3317     297.6600   298.2500   2.8681     0.1098     -0.0002    0.0000     0.1122     0.0987     1031.4187  2031.4187  1.9925     12.3094   
7559.0000  0.0000     8.7500     9.1197     1.4303     64.3525    130.7343   133.6283   85.2735    109.3593   -999.2500  97.3164    81.4901    0.3175     0.1966     0.3401     297.7100   298.2400   2.1894     0.1185     -0.0001    -0.0001    -12.9340   0.1132     1040.9462  2040.9462  2.0315     12.0965   
7559.5000  0.0000     8.7500     9.0245     1.5699     64.9173    133.5294   134.8775   85.2175    110.0302   -999.2500  97.6239    82.3906    0.3250     0.2065     0.3452     297.7100   298.2300   1.0045     0.1225     0.0000     -0.0003    -25.7738   0.1318     1046.9307  2046.9307  2.0569     11.8535   
