~Version
 VERS              .         2.0                           : CWLS LOG ASCII STANDARD - VERSION 2.0
 WRAP              .         NO                            : ONE LINE PER DEPTH STEP
 DLM               .         SPACE                         : DELIMITING CHARACTER(SPACE TAB OR COMMA)
~Well Information
#_______________________________________________________________________________
#
#PARAMETER_NAME    .UNIT     VALUE                         : DESCRIPTION
#_______________________________________________________________________________
STRT               .ft       3452.0000                     : First reference value
STOP               .ft       9050.0000                     : Last reference value
STEP               .ft       0.5000                        : Step increment
NULL               .         -999.25                       : Missing value
COMP               .         University of Utah            : Company
WELL               .         FORGE 56-32 Monitor Well      : Well name
FLD                .         Wildcat                       : Field
LOC                .                                       : Location
CNTY               .                                       : County
STAT               .         Utah                          : State
CTRY               .         USA                           : Country
SRVC               .         Schlumberger                  : Service Company
DATE               .         27-Feb-2021                   : Date
API                .                                       : API number
APD                .ft       30.4                          : Elevation of Depth Reference (LMF) Above Permanent Datum
BHS                .         OPEN                          : Borehole Status (Open or Cased Hole)
BHT                .degF     306                           : Bottom Hole Temperature
BLI                .ft       9105                          : Bottom Log Interval
BS                 .in       8.75                          : Bit Size
CBDR               .ft       3100                          : Casing Bottom of Driller
CBLO               .ft       3100                          : Logger Casing Shoe Depth
CSIZ               .in       9.625                         : Current Casing Size
CWEI               .lbm/ft   36                            : Casing Weight
DCS                .         27-Feb-2021                   : Date Circulation Stopped
DFD                .lbm/gal  9                             : Drilling Fluid Density
DFT                .         WBM                           : Drilling Fluid Type
DLAB               .         27-Feb-2021                   : Date Logger At Bottom
EDF                .ft       5451.72                       : Elevation of Drill Floor
EGL                .ft       5451.72                       : Elevation of Ground Level
EKB                .ft       5482.12                       : Elevation of Kelly Bushing
EPD                .ft       5451.72                       : Elevation of Permanent Datum (PDAT) above Mean Sea Level
LMF                .         KB                            : Logging Measured From (Name of Logging Elevation Reference)
LUL                .         Fort Morgan, CO               : Logging Unit Location
LUN                .         2801                          : Logging Unit Number
LATI               .         38° 30' 14.512" N             : Latitude
LONG               .         112° 53' 11.354" W            : Longitude
MCST               .degF     68                            : Mudcake Sample Temperature
MFST               .degF     68                            : Mud Filtrate Sample Temperature
MRT                .degF     -999.25                       : Maximum Recorded Temperature
MST                .degF     68                            : Mud Sample Temperature
PDAT               .         GL                            : Permanent Datum
PRODUCER-CODE      .         440                           : 
PRODUCER-NAME      .         Schlumberger                  : 
RMB                .ohm.m    0.04781149                    : Resistivity of Mud at Bottom Hole Temperature
RMCS               .ohm.m    -999.25                       : Resistivity of Mud Cake Sample
RMFS               .ohm.m    0.15                          : Resistivity of Mud Filtrate Sample
RMS                .ohm.m    0.2                           : Resistivity of Mud Sample
RUN                .         ONE                           : Run Number
TCS                .         16_45_00                      : Time Circulation Stopped
TDD                .ft       9145                          : Driller Total Depth
TDL                .ft       9145                          : Logger Total Depth
TLAB               .         17_00_00                      : Time Logger At Bottom
TLI                .ft       3500                          : Top Log Interval
~Parameter Information Block
#_______________________________________________________________________________
#
#PARAMETER_NAME    .UNIT     VALUE                         : DESCRIPTION
#_______________________________________________________________________________
SET                .         1PnS-Aniso_DM_las             : 
TLFamily_AZIM      .         Hole Azimuth                  : 
TLFamily_BS_RM     .         Bit Size                      : 
TLFamily_C1_24     .         Caliper                       : 
TLFamily_DEVI      .         Hole Deviation                : 
TLFamily_DTCO_MPS_R .         Compressional Slowness        : 
TLFamily_DTSH_FAST .         Fast Shear Slowness           : 
TLFamily_DTSH_SLOW .         Slow Shear Slowness           : 
TLFamily_FSA_ERRMINUS .         Fast Shear Azimuth            : 
TLFamily_FSA_ERRPLUS .         Fast Shear Azimuth            : 
TLFamily_FSA_NAZ_IN .         Fast Shear Azimuth            : 
TLFamily_FSA_TOH   .         Fast Shear Azimuth            : 
TLFamily_GR_TMG    .         Gamma Ray                     : 
TLFamily_MAXXENE_OVERALL .         Acoustic Energy               : 
TLFamily_MD        .         Measured Depth                : 
TLFamily_MINXENE_OVERALL .         Acoustic Energy               : 
TLFamily_PR_Fast   .         Poisson Ratio (Dynamic)       : 
TLFamily_RB        .         Relative Bearing              : 
TLFamily_SENSOR_AZIM_QCI .         Sensor Azimuth                : 
TLFamily_SLOANI    .         Acoustic Anisotropy           : 
TLFamily_SPHI      .         Total Porosity                : 
TLFamily_TDIF_ALT_OVERALL .         Time Interval                 : 
TLFamily_TDIF_ORG_OVERALL .         Time Interval                 : 
TLFamily_TIMANI    .         Acoustic Anisotropy           : 
TLFamily_TNPH      .         Thermal Neutron Porosity      : 
TLFamily_TW_B_L6   .         Travel Time                   : 
TLFamily_TW_E_L6   .         Travel Time                   : 
TLFamily_VPVS_Fast .         VpVs (Compressional To Shear) Ratio: 
TLFamily_XENEDIF   .         Acoustic Energy               : 
~Curve Information
#_______________________________________________________________________________
#
#LOGNAME           .UNIT     LOG_ID                        : DESCRIPTION
#_______________________________________________________________________________
MD                 .ft                                     : Measured Depth 
AZIM               .deg                                    : Measured Azimuth 
BS_RM              .in                                     : Bit Size 
C1_24              .in                                     : Caliper Section 1, Pads 2-4 
DEVI               .deg                                    : Hole Deviation 
DTCO_MPS_R         .us/ft                                  : Compressional slowness 
DTSH_FAST          .us/ft                                  : Shear slowness 
DTSH_SLOW          .us/ft                                  : Shear slowness 
FSA_ERRMINUS       .deg                                    : Fast shear azimuth error minus(TOH REF90) - swapped 
FSA_ERRPLUS        .deg                                    : Fast shear azimuth error plus(TOH REF90) - swapped 
FSA_NAZ_IN         .deg                                    : Fast Shear Azimuth in Anisotropic Intervals 
FSA_TOH            .deg                                    : Fast shear azimuth(TOH REF90) - overall - swapped 
GR_TMG             .gAPI                                   : Gamma Ray 
MAXXENE_OVERALL    .unitless                               : Maximum cross energy - overall 
MINXENE_OVERALL    .unitless                               : Minimum cross energy - overall 
PR_Fast            .unitless                               : Fast Poisson's Ratio 
RB                 .deg                                    : Relative Bearing 
SENSOR_AZIM_QCI    .deg                                    : Tool azimuth for input QC 
SLOANI             .%                                      : Slowness based anisotropy 
SPHI               .ft3/ft3                                : Total porosity from Sonic 
TDIF_ALT_OVERALL   .s                                      : Arrival time difference between fast and slow waves(alternate) - overall - swapped 
TDIF_ORG_OVERALL   .s                                      : Arrival time difference between fast and slow waves(original) - overall - swapped 
TIMANI             .%                                      : Time based anisotropy 
TNPH               .ft3/ft3                                : Thermal Neutron Porosity (Ratio Method) in Selected Lithology 
TW_B_L6            .us                                     : Time window begin - packed 
TW_E_L6            .us                                     : Time window end - packed 
VPVS_Fast          .unitless                               : Fast VPVS 
XENEDIF            .unitless                               : Energy based anisotropy 
~Ascii
# ...
4947.0000  0.0000     8.7500     8.8288     2.2295     52.6015    98.4272    99.0347    22.6327    42.8173    -999.2500  32.7250    195.8463   0.0595     0.0299     0.3001     309.5600   309.2300   0.6153     0.0354     0.0000     -0.0003    -32.2321   0.0323     955.1103   1955.1104  1.8712     2.9601    
4947.5000  0.0000     8.7500     8.8313     2.2296     52.4557    98.6100    99.2355    23.1640    44.7440    -999.2500  33.9540    193.2952   0.0578     0.0301     0.3027     309.5600   309.2625   0.6323     0.0343     0.0000     -0.0003    -32.2098   0.0305     955.7426   1955.7427  1.8799     2.7667    
4948.0000  0.0000     8.7500     8.8485     2.2361     52.5313    98.8687    99.4253    23.8814    46.9612    -999.2500  35.4213    177.5373   0.0569     0.0310     0.3033     309.7400   309.3475   0.5614     0.0349     0.0000     -0.0003    -32.2192   0.0315     956.0072   1956.0073  1.8821     2.5859    
4948.5000  0.0000     8.7500     8.8522     2.4026     52.5951    99.0874    99.5584    24.8765    48.8838    -999.2500  36.8802    189.3331   0.0569     0.0318     0.3039     309.7400   309.4700   0.4742     0.0353     -0.0001    -0.0002    -24.1890   0.0309     955.9035   1955.9036  1.8840     2.5123    
4949.0000  0.0000     8.7500     8.8245     2.2137     52.4826    99.1824    99.6280    25.7281    50.0131    -999.2500  37.8706    177.6875   0.0574     0.0322     0.3056     309.6800   309.6300   0.4483     0.0345     -0.0002    -0.0001    -8.0608    0.0317     955.6013   1955.6013  1.8898     2.5251    
4949.5000  0.0000     8.7500     8.8254     2.2468     52.2840    99.1767    99.6717    26.3189    50.9995    -999.2500  38.6592    175.2862   0.0578     0.0325     0.3076     309.6800   309.7100   0.4978     0.0331     -0.0003    0.0000     0.0305     0.0302     955.0720   1955.0720  1.8969     2.5249    
4950.0000  0.0000     8.7500     8.8203     2.2376     52.1679    99.1343    99.6832    27.0218    51.9139    -999.2500  39.4678    183.8238   0.0582     0.0329     0.3085     309.6300   309.6418   0.5521     0.0323     -0.0003    0.0000     0.0545     0.0300     954.1172   1954.1173  1.9003     2.5312    
4950.5000  0.0000     8.7500     8.8155     2.2205     52.2173    99.0605    99.5938    27.3555    52.0720    -999.2500  39.7137    190.1435   0.0582     0.0328     0.3076     309.6300   309.5668   0.5369     0.0327     -0.0003    0.0000     0.0588     0.0299     953.4497   1953.4498  1.8971     2.5392    
4951.0000  0.0000     8.7500     8.8346     2.2365     52.3564    98.8568    99.3133    26.9049    52.0029    -999.2500  39.4539    175.5864   0.0574     0.0328     0.3051     309.7900   309.6050   0.4607     0.0336     -0.0003    0.0000     0.0332     0.0302     953.2518   1953.2518  1.8881     2.4558    
4951.5000  0.0000     8.7500     8.8563     2.2241     52.3903    98.5063    98.9050    25.9934    52.2831    -999.2500  39.1382    186.0916   0.0560     0.0331     0.3028     309.7900   309.6950   0.4039     0.0339     -0.0002    -0.0001    -7.9903    0.0293     952.7407   1952.7407  1.8802     2.2846    
4952.0000  0.0000     8.7500     8.8369     2.2080     52.3083    98.1756    98.6771    24.8521    52.3518    -999.2500  38.6019    182.4897   0.0550     0.0336     0.3018     309.6200   309.7250   0.5095     0.0333     -0.0001    -0.0002    -23.9368   0.0288     952.0970   1952.0970  1.8769     2.1384    
4952.5000  0.0000     8.7500     8.8211     2.1120     52.3021    98.0037    98.8456    23.5788    51.2397    -999.2500  37.4092    190.5938   0.0550     0.0337     0.3009     309.6200   309.6950   0.8554     0.0333     0.0000     -0.0003    -31.7217   0.0297     951.9690   1951.9690  1.8738     2.1291    
4953.0000  0.0000     8.7500     8.8366     2.3462     52.3832    97.9443    99.3120    22.4086    49.0528    -999.2500  35.7307    179.4884   0.0556     0.0329     0.2997     309.3400   309.6675   1.3867     0.0338     0.0000     -0.0003    -31.4235   0.0313     952.1664   1952.1664  1.8698     2.2664    
4953.5000  0.0000     8.7500     8.8135     2.2083     52.3070    97.8674    99.8163    21.9789    46.9415    -999.2500  34.4602    180.0886   0.0564     0.0314     0.3001     309.3400   309.6425   1.9717     0.0333     0.0000     -0.0003    -31.1616   0.0317     952.4382   1952.4381  1.8710     2.4979    
4954.0000  0.0000     8.7500     8.8052     2.2638     52.3101    97.7133    100.1920   22.3482    45.5812    -999.2500  33.9647    187.2921   0.0568     0.0295     0.2991     309.1100   309.6700   2.5049     0.0333     0.0000     -0.0003    -30.9235   0.0310     953.1483   1953.1483  1.8680     2.7304    
4954.5000  0.0000     8.7500     8.8301     2.0860     52.6393    97.5488    100.3948   22.7076    44.6541    -999.2500  33.6809    179.9386   0.0565     0.0278     0.2946     309.1100   309.7500   2.8756     0.0356     0.0000     -0.0003    -30.7157   0.0306     954.0793   1954.0793  1.8532     2.8653    
4955.0000  0.0000     8.7500     8.8359     2.2070     52.9099    97.3754    100.5107   22.7722    43.6597    -999.2500  33.2160    192.2947   0.0557     0.0265     0.2905     309.0900   309.7900   3.1688     0.0376     0.0000     -0.0003    -30.4935   0.0303     955.5092   1955.5093  1.8404     2.9176    
4955.5000  0.0000     8.7500     8.8110     2.1889     52.8361    97.3153    100.6590   22.7434    42.6812    -999.2500  32.7123    179.3382   0.0547     0.0254     0.2910     309.0900   309.7127   3.3779     0.0370     0.0000     -0.0003    -30.2331   0.0305     957.2867   1957.2866  1.8418     2.9291    
4956.0000  0.0000     8.7500     8.8146     2.3713     52.5611    97.5791    100.8340   22.8792    42.4379    -999.2500  32.6586    184.5908   0.0542     0.0252     0.2956     309.0000   309.6277   3.2810     0.0351     0.0000     -0.0003    -30.0438   0.0314     958.5969   1958.5968  1.8565     2.9062    
4956.5000  0.0000     8.7500     8.8135     2.0672     52.4396    98.3869    101.1174   23.6345    43.3227    -999.2500  33.4786    193.8955   0.0545     0.0258     0.3016     309.0000   309.5500   2.7373     0.0342     0.0000     -0.0003    -29.9125   0.0328     959.9701   1959.9701  1.8762     2.8779    
4957.0000  0.0000     8.7500     8.8028     2.2800     52.6908    99.7415    101.6273   25.2294    44.9634    -999.2500  35.0964    180.6889   0.0561     0.0269     0.3064     308.8200   309.4100   1.8729     0.0360     0.0000     -0.0003    -29.8361   0.0362     961.8093   1961.8093  1.8930     2.9202    
4957.5000  0.0000     8.7500     8.8042     2.2403     53.3018    101.2055   102.4161   27.2152    46.4885    -999.2500  36.8519    194.3456   0.0587     0.0281     0.3081     308.8200   309.2825   1.1890     0.0403     0.0000     -0.0003    -29.8490   0.0437     964.1750   1964.1750  1.8987     3.0663    
4958.0000  0.0000     8.7500     8.8145     2.0388     54.0836    102.4285   103.5607   28.9406    47.8908    -999.2500  38.4157    181.2893   0.0608     0.0290     0.3067     308.3400   309.1675   1.0993     0.0459     0.0000     -0.0003    -29.9308   0.0508     966.7880   1966.7880  1.8939     3.1827    
4958.5000  0.0000     8.7500     8.8665     2.1082     54.7057    103.2327   104.9905   30.4135    49.8500    -999.2500  40.1317    185.0410   0.0617     0.0301     0.3048     308.3400   309.1050   1.6884     0.0503     0.0000     -0.0003    -30.0507   0.0557     969.2315   1969.2314  1.8871     3.1589    
4959.0000  0.0000     8.7500     8.9375     2.0389     54.8810    103.4981   106.3645   31.9517    52.4055    -999.2500  42.1786    178.4877   0.0618     0.0314     0.3044     307.8400   309.0950   2.7317     0.0515     0.0000     -0.0003    -30.1620   0.0531     971.6349   1971.6350  1.8859     3.0375    
4959.5000  0.0000     8.7500     8.8618     1.9664     54.8300    103.2815   107.2434   33.2561    54.9164    -999.2500  44.0862    195.0960   0.0612     0.0324     0.3038     307.8400   309.0675   3.7638     0.0511     0.0000     -0.0003    -30.2857   0.0501     973.8698   1973.8699  1.8837     2.8719    
