~Version
 VERS              .         2.0                           : CWLS LOG ASCII STANDARD - VERSION 2.0
 WRAP              .         NO                            : ONE LINE PER DEPTH STEP
 DLM               .         SPACE                         : DELIMITING CHARACTER(SPACE TAB OR COMMA)
~Well Information
#_______________________________________________________________________________
#
#PARAMETER_NAME    .UNIT     VALUE                         : DESCRIPTION
#_______________________________________________________________________________
STRT               .ft       3452.0000                     : First reference value
STOP               .ft       9050.0000                     : Last reference value
STEP               .ft       0.5000                        : Step increment
NULL               .         -999.25                       : Missing value
COMP               .         University of Utah            : Company
WELL               .         FORGE 56-32 Monitor Well      : Well name
FLD                .         Wildcat                       : Field
LOC                .                                       : Location
CNTY               .                                       : County
STAT               .         Utah                          : State
CTRY               .         USA                           : Country
SRVC               .         Schlumberger                  : Service Company
DATE               .         27-Feb-2021                   : Date
API                .                                       : API number
APD                .ft       30.4                          : Elevation of Depth Reference (LMF) Above Permanent Datum
BHS                .         OPEN                          : Borehole Status (Open or Cased Hole)
BHT                .degF     306                           : Bottom Hole Temperature
BLI                .ft       9105                          : Bottom Log Interval
BS                 .in       8.75                          : Bit Size
CBDR               .ft       3100                          : Casing Bottom of Driller
CBLO               .ft       3100                          : Logger Casing Shoe Depth
CSIZ               .in       9.625                         : Current Casing Size
CWEI               .lbm/ft   36                            : Casing Weight
DCS                .         27-Feb-2021                   : Date Circulation Stopped
DFD                .lbm/gal  9                             : Drilling Fluid Density
DFT                .         WBM                           : Drilling Fluid Type
DLAB               .         27-Feb-2021                   : Date Logger At Bottom
EDF                .ft       5451.72                       : Elevation of Drill Floor
EGL                .ft       5451.72                       : Elevation of Ground Level
EKB                .ft       5482.12                       : Elevation of Kelly Bushing
EPD                .ft       5451.72                       : Elevation of Permanent Datum (PDAT) above Mean Sea Level
LMF                .         KB                            : Logging Measured From (Name of Logging Elevation Reference)
LUL                .         Fort Morgan, CO               : Logging Unit Location
LUN                .         2801                          : Logging Unit Number
LATI               .         38° 30' 14.512" N             : Latitude
LONG               .         112° 53' 11.354" W            : Longitude
MCST               .degF     68                            : Mudcake Sample Temperature
MFST               .degF     68                            : Mud Filtrate Sample Temperature
MRT                .degF     -999.25                       : Maximum Recorded Temperature
MST                .degF     68                            : Mud Sample Temperature
PDAT               .         GL                            : Permanent Datum
PRODUCER-CODE      .         440                           : 
PRODUCER-NAME      .         Schlumberger                  : 
RMB                .ohm.m    0.04781149                    : Resistivity of Mud at Bottom Hole Temperature
RMCS               .ohm.m    -999.25                       : Resistivity of Mud Cake Sample
RMFS               .ohm.m    0.15                          : Resistivity of Mud Filtrate Sample
RMS                .ohm.m    0.2                           : Resistivity of Mud Sample
RUN                .         ONE                           : Run Number
TCS                .         16_45_00                      : Time Circulation Stopped
TDD                .ft       9145                          : Driller Total Depth
TDL                .ft       9145                          : Logger Total Depth
TLAB               .         17_00_00                      : Time Logger At Bottom
TLI                .ft       3500                          : Top Log Interval
~Parameter Information Block
#_______________________________________________________________________________
#
#PARAMETER_NAME    .UNIT     VALUE                         : DESCRIPTION
#_______________________________________________________________________________
SET                .         1PnS-Aniso_DM_las             : 
TLFamily_AZIM      .         Hole Azimuth                  : 
TLFamily_BS_RM     .         Bit Size                      : 
TLFamily_C1_24     .         Caliper                       : 
TLFamily_DEVI      .         Hole Deviation                : 
TLFamily_DTCO_MPS_R .         Compressional Slowness        : 
TLFamily_DTSH_FAST .         Fast Shear Slowness           : 
TLFamily_DTSH_SLOW .         Slow Shear Slowness           : 
TLFamily_FSA_ERRMINUS .         Fast Shear Azimuth            : 
TLFamily_FSA_ERRPLUS .         Fast Shear Azimuth            : 
TLFamily_FSA_NAZ_IN .         Fast Shear Azimuth            : 
TLFamily_FSA_TOH   .         Fast Shear Azimuth            : 
TLFamily_GR_TMG    .         Gamma Ray                     : 
TLFamily_MAXXENE_OVERALL .         Acoustic Energy               : 
TLFamily_MD        .         Measured Depth                : 
TLFamily_MINXENE_OVERALL .         Acoustic Energy               : 
TLFamily_PR_Fast   .         Poisson Ratio (Dynamic)       : 
TLFamily_RB        .         Relative Bearing              : 
TLFamily_SENSOR_AZIM_QCI .         Sensor Azimuth                : 
TLFamily_SLOANI    .         Acoustic Anisotropy           : 
TLFamily_SPHI      .         Total Porosity                : 
TLFamily_TDIF_ALT_OVERALL .         Time Interval                 : 
TLFamily_TDIF_ORG_OVERALL .         Time Interval                 : 
TLFamily_TIMANI    .         Acoustic Anisotropy           : 
TLFamily_TNPH      .         Thermal Neutron Porosity      : 
TLFamily_TW_B_L6   .         Travel Time                   : 
TLFamily_TW_E_L6   .         Travel Time                   : 
TLFamily_VPVS_Fast .         VpVs (Compressional To Shear) Ratio: 
TLFamily_XENEDIF   .         Acoustic Energy               : 
~Curve Information
#_______________________________________________________________________________
#
#LOGNAME           .UNIT     LOG_ID                        : DESCRIPTION
#_______________________________________________________________________________
MD                 .ft                                     : Measured Depth 
AZIM               .deg                                    : Measured Azimuth 
BS_RM              .in                                     : Bit Size 
C1_24              .in                                     : Caliper Section 1, Pads 2-4 
DEVI               .deg                                    : Hole Deviation 
DTCO_MPS_R         .us/ft                                  : Compressional slowness 
DTSH_FAST          .us/ft                                  : Shear slowness 
DTSH_SLOW          .us/ft                                  : Shear slowness 
FSA_ERRMINUS       .deg                                    : Fast shear azimuth error minus(TOH REF90) - swapped 
FSA_ERRPLUS        .deg                                    : Fast shear azimuth error plus(TOH REF90) - swapped 
FSA_NAZ_IN         .deg                                    : Fast Shear Azimuth in Anisotropic Intervals 
FSA_TOH            .deg                                    : Fast shear azimuth(TOH REF90) - overall - swapped 
GR_TMG             .gAPI                                   : Gamma Ray 
MAXXENE_OVERALL    .unitless                               : Maximum cross energy - overall 
MINXENE_OVERALL    .unitless                               : Minimum cross energy - overall 
PR_Fast            .unitless                               : Fast Poisson's Ratio 
RB                 .deg                                    : Relative Bearing 
SENSOR_AZIM_QCI    .deg                                    : Tool azimuth for input QC 
SLOANI             .%                                      : Slowness based anisotropy 
SPHI               .ft3/ft3                                : Total porosity from Sonic 
TDIF_ALT_OVERALL   .s                                      : Arrival time difference between fast and slow waves(alternate) - overall - swapped 
TDIF_ORG_OVERALL   .s                                      : Arrival time difference between fast and slow waves(original) - overall - swapped 
TIMANI             .%                                      : Time based anisotropy 
TNPH               .ft3/ft3                                : Thermal Neutron Porosity (Ratio Method) in Selected Lithology 
TW_B_L6            .us                                     : Time window begin - packed 
TW_E_L6            .us                                     : Time window end - packed 
VPVS_Fast          .unitless                               : Fast VPVS 
XENEDIF            .unitless                               : Energy based anisotropy 
~Ascii
# ...
4193.0000  0.0000     8.7500     8.9465     1.7230     52.6736    102.1315   107.3212   41.5975    55.2587    -999.2500  48.4281    146.0218   0.1396     0.0475     0.3188     304.0100   304.3400   4.9555     0.0359     -0.0003    0.0000     0.5863     0.0349     949.6157   1949.6157  1.9389     9.2149    
4193.5000  0.0000     8.7500     8.8697     1.7544     53.0115    102.7786   108.6171   43.2148    55.5153    49.3651    49.3651    146.8723   0.1433     0.0458     0.3188     304.0100   304.0400   5.5238     0.0383     -0.0003    0.0000     0.5587     0.0334     949.1097   1949.1096  1.9388     9.7546    
4194.0000  0.0000     8.7500     8.8750     1.7401     53.0976    102.7864   109.0476   44.0029    55.6695    49.8362    49.8362    160.8792   0.1458     0.0447     0.3180     304.1300   304.0400   5.9114     0.0389     -0.0003    0.0000     0.5526     0.0335     949.0766   1949.0767  1.9358     10.1156   
4194.5000  0.0000     8.7500     8.9924     1.7230     52.8307    102.7942   109.4781   44.7910    55.8237    50.3073    50.3073    161.0792   0.1483     0.0436     0.3205     304.1300   304.0400   6.2974     0.0370     -0.0003    0.0000     0.5466     0.0343     949.0436   1949.0436  1.9457     10.4766   
4195.0000  0.0000     8.7500     9.0265     1.7271     52.5721    102.5670   109.7748   45.4366    55.8232    50.6299    50.6299    154.7262   0.1519     0.0426     0.3218     303.9700   303.9944   6.7889     0.0352     -0.0003    0.0000     0.5604     0.0347     949.1818   1949.1819  1.9510     10.9279   
4195.5000  0.0000     8.7500     8.9474     1.7397     52.3279    102.2390   110.0143   46.0211    55.7564    50.8887    50.8887    149.4736   0.1559     0.0417     0.3225     303.9700   303.9291   7.3265     0.0334     -0.0003    0.0000     0.5827     0.0382     949.3935   1949.3936  1.9538     11.4180   
4196.0000  0.0000     8.7500     8.9241     1.7275     51.9588    101.7997   110.1981   46.5255    55.6628    51.0941    51.0941    144.0708   0.1593     0.0410     0.3239     304.1200   303.8900   7.9230     0.0308     -0.0003    0.0000     0.6039     0.0370     949.5001   1949.5001  1.9592     11.8350   
4196.5000  0.0000     8.7500     8.9229     1.7415     51.8233    101.1935   110.2981   46.9097    55.5291    51.2194    51.2194    157.5775   0.1619     0.0405     0.3222     304.1200   303.8900   8.6099     0.0299     -0.0003    0.0000     0.6235     0.0365     949.4490   1949.4490  1.9527     12.1424   
4197.0000  0.0000     8.7500     8.8533     1.7409     51.9078    100.5925   110.3941   47.2607    55.4046    51.3327    51.3327    156.6771   0.1644     0.0401     0.3185     304.1900   303.8952   9.2912     0.0305     -0.0003    0.0000     0.6462     0.0346     949.4289   1949.4288  1.9379     12.4306   
4197.5000  0.0000     8.7500     8.8853     1.7399     51.8629    100.0379   110.4531   47.3135    55.3625    51.3380    51.3380    155.6766   0.1659     0.0404     0.3162     304.1900   303.9474   9.8961     0.0301     -0.0003    0.0000     0.6973     0.0340     949.6865   1949.6864  1.9289     12.5467   
4198.0000  0.0000     8.7500     9.0041     1.7248     51.6908    99.4832    110.5121   47.3663    55.3203    51.3433    51.3433    144.2209   0.1674     0.0407     0.3151     304.0300   303.9996   10.5039    0.0289     -0.0003    0.0000     0.7484     0.0333     949.9441   1949.9441  1.9246     12.6628   
4198.5000  0.0000     8.7500     9.0426     1.7807     51.5124    99.2090    110.4392   47.3441    55.3082    51.3261    51.3261    152.2749   0.1704     0.0412     0.3154     304.0300   304.0100   10.7134    0.0277     -0.0003    0.0000     0.8281     0.0333     949.8235   1949.8236  1.9259     12.9221   
4199.0000  0.0000     8.7500     8.9546     1.7100     51.4189    99.0048    110.3333   47.3032    55.3035    51.3033    51.3033    168.6831   0.1738     0.0417     0.3153     304.1000   304.0100   10.8232    0.0270     -0.0003    0.0000     0.9149     0.0347     949.6085   1949.6085  1.9255     13.2173   
4199.5000  0.0000     8.7500     8.9199     1.7664     51.6032    98.9756    110.0008   47.2526    55.3226    51.2876    51.2876    158.0778   0.1778     0.0422     0.3133     304.1000   304.0361   10.5517    0.0283     -0.0003    0.0000     1.0085     0.0355     949.7733   1949.7733  1.9180     13.5631   
4200.0000  0.0000     8.7500     8.9404     1.7212     52.0602    99.1212    109.4416   47.1924    55.3656    51.2790    51.2790    149.0233   0.1823     0.0427     0.3095     303.8400   304.0883   9.8966     0.0315     -0.0003    0.0000     1.1086     0.0354     950.3179   1950.3180  1.9040     13.9596   
4200.5000  0.0000     8.7500     8.8672     1.7017     52.6175    99.3031    108.8021   47.1307    55.3857    51.2582    51.2582    159.0783   0.1870     0.0431     0.3048     303.8400   304.1300   9.1290     0.0355     -0.0003    0.0000     1.2057     0.0362     950.7166   1950.7166  1.8873     14.3838   
4201.0000  0.0000     8.7500     8.8956     1.7102     53.1011    99.6299    107.8421   47.0628    55.3144    51.1886    51.1886    141.3696   0.1924     0.0432     0.3016     303.5900   304.1300   7.9165     0.0389     -0.0003    0.0000     1.2907     0.0375     950.5311   1950.5311  1.8762     14.9186   
4201.5000  0.0000     8.7500     9.0247     1.6765     53.6334    99.9566    106.8820   46.9949    55.2432    51.1191    51.1191    146.2719   0.1978     0.0433     0.2978     303.5900   304.1300   6.6965     0.0427     -0.0003    0.0000     1.3757     0.0377     950.3457   1950.3457  1.8637     15.4534   
4202.0000  0.0000     8.7500     9.0648     1.6792     54.1951    100.3423   105.9617   47.0517    55.1658    51.1087    51.1087    129.2136   0.2052     0.0431     0.2941     303.5800   304.0674   5.4477     0.0466     -0.0003    0.0000     1.4539     0.0401     950.4874   1950.4874  1.8515     16.2059   
4202.5000  0.0000     8.7500     8.9853     1.7311     54.5787    100.7346   105.0458   47.1223    55.0877    51.1050    51.1050    124.5613   0.2127     0.0429     0.2922     303.5800   303.9978   4.1902     0.0494     -0.0003    0.0000     1.5312     0.0433     950.6656   1950.6655  1.8457     16.9827   
4203.0000  0.0000     8.7500     8.9579     1.7045     54.8069    101.1232   104.3734   47.1056    54.9795    51.0426    51.0426    129.0635   0.2187     0.0427     0.2920     303.8600   303.9700   3.1632     0.0510     -0.0003    0.0000     1.6017     0.0476     951.0775   1951.0775  1.8451     17.5992   
4203.5000  0.0000     8.7500     8.9765     1.7184     54.9165    101.5095   103.8632   47.0308    54.8513    50.9410    50.9410    119.4587   0.2237     0.0426     0.2931     303.8600   303.9700   2.2922     0.0517     -0.0003    0.0000     1.6677     0.0475     951.6453   1951.6453  1.8484     18.1089   
4204.0000  0.0000     8.7500     8.9105     1.6889     54.8248    101.8583   103.5069   46.9337    54.7461    -999.2500  50.8399    108.2033   0.2277     0.0424     0.2961     303.8600   303.9896   1.6055     0.0511     -0.0003    0.0000     1.7338     0.0492     952.2278   1952.2277  1.8579     18.5305   
4204.5000  0.0000     8.7500     8.9356     1.7525     54.3514    102.1196   103.5094   46.7846    54.6950    -999.2500  50.7398    97.8481    0.2297     0.0422     0.3024     303.8600   304.0548   1.3518     0.0477     -0.0003    0.0000     1.8005     0.0529     952.8444   1952.8444  1.8789     18.7463   
4205.0000  0.0000     8.7500     9.0462     1.7038     53.7614    102.3809   103.5120   46.6356    54.6439    -999.2500  50.6397    90.8446    0.2317     0.0420     0.3096     304.3700   304.1200   1.0988     0.0436     -0.0003    0.0000     1.8670     0.0574     953.4610   1953.4609  1.9044     18.9622   
4205.5000  0.0000     8.7500     9.0559     1.7158     53.2556    102.4557   104.3820   46.1135    54.4235    -999.2500  50.2685    89.1439    0.2347     0.0419     0.3149     304.3700   304.1200   1.8626     0.0400     -0.0003    0.0000     2.0363     0.0614     955.8934   1955.8934  1.9238     19.2735   
