~Version
 VERS              .         2.0                           : CWLS LOG ASCII STANDARD - VERSION 2.0
 WRAP              .         NO                            : ONE LINE PER DEPTH STEP
 DLM               .         SPACE                         : DELIMITING CHARACTER(SPACE TAB OR COMMA)
~Well Information
#_______________________________________________________________________________
#
#PARAMETER_NAME    .UNIT     VALUE                         : DESCRIPTION
#_______________________________________________________________________________
STRT               .ft       3452.0000                     : First reference value
STOP               .ft       9050.0000                     : Last reference value
STEP               .ft       0.5000                        : Step increment
NULL               .         -999.25                       : Missing value
COMP               .         University of Utah            : Company
WELL               .         FORGE 56-32 Monitor Well      : Well name
FLD                .         Wildcat                       : Field
LOC                .                                       : Location
CNTY               .                                       : County
STAT               .         Utah                          : State
CTRY               .         USA                           : Country
SRVC               .         Schlumberger                  : Service Company
DATE               .         27-Feb-2021                   : Date
API                .                                       : API number
APD                .ft       30.4                          : Elevation of Depth Reference (LMF) Above Permanent Datum
BHS                .         OPEN                          : Borehole Status (Open or Cased Hole)
BHT                .degF     306                           : Bottom Hole Temperature
BLI                .ft       9105                          : Bottom Log Interval
BS                 .in       8.75                          : Bit Size
CBDR               .ft       3100                          : Casing Bottom of Driller
CBLO               .ft       3100                          : Logger Casing Shoe Depth
CSIZ               .in       9.625                         : Current Casing Size
CWEI               .lbm/ft   36                            : Casing Weight
DCS                .         27-Feb-2021                   : Date Circulation Stopped
DFD                .lbm/gal  9                             : Drilling Fluid Density
DFT                .         WBM                           : Drilling Fluid Type
DLAB               .         27-Feb-2021                   : Date Logger At Bottom
EDF                .ft       5451.72                       : Elevation of Drill Floor
EGL                .ft       5451.72                       : Elevation of Ground Level
EKB                .ft       5482.12                       : Elevation of Kelly Bushing
EPD                .ft       5451.72                       : Elevation of Permanent Datum (PDAT) above Mean Sea Level
LMF                .         KB                            : Logging Measured From (Name of Logging Elevation Reference)
LUL                .         Fort Morgan, CO               : Logging Unit Location
LUN                .         2801                          : Logging Unit Number
LATI               .         38° 30' 14.512" N             : Latitude
LONG               .         112° 53' 11.354" W            : Longitude
MCST               .degF     68                            : Mudcake Sample Temperature
MFST               .degF     68                            : Mud Filtrate Sample Temperature
MRT                .degF     -999.25                       : Maximum Recorded Temperature
MST                .degF     68                            : Mud Sample Temperature
PDAT               .         GL                            : Permanent Datum
PRODUCER-CODE      .         440                           : 
PRODUCER-NAME      .         Schlumberger                  : 
RMB                .ohm.m    0.04781149                    : Resistivity of Mud at Bottom Hole Temperature
RMCS               .ohm.m    -999.25                       : Resistivity of Mud Cake Sample
RMFS               .ohm.m    0.15                          : Resistivity of Mud Filtrate Sample
RMS                .ohm.m    0.2                           : Resistivity of Mud Sample
RUN                .         ONE                           : Run Number
TCS                .         16_45_00                      : Time Circulation Stopped
TDD                .ft       9145                          : Driller Total Depth
TDL                .ft       9145                          : Logger Total Depth
TLAB               .         17_00_00                      : Time Logger At Bottom
TLI                .ft       3500                          : Top Log Interval
~Parameter Information Block
#_______________________________________________________________________________
#
#PARAMETER_NAME    .UNIT     VALUE                         : DESCRIPTION
#_______________________________________________________________________________
SET                .         1PnS-Aniso_DM_las             : 
TLFamily_AZIM      .         Hole Azimuth                  : 
TLFamily_BS_RM     .         Bit Size                      : 
TLFamily_C1_24     .         Caliper                       : 
TLFamily_DEVI      .         Hole Deviation                : 
TLFamily_DTCO_MPS_R .         Compressional Slowness        : 
TLFamily_DTSH_FAST .         Fast Shear Slowness           : 
TLFamily_DTSH_SLOW .         Slow Shear Slowness           : 
TLFamily_FSA_ERRMINUS .         Fast Shear Azimuth            : 
TLFamily_FSA_ERRPLUS .         Fast Shear Azimuth            : 
TLFamily_FSA_NAZ_IN .         Fast Shear Azimuth            : 
TLFamily_FSA_TOH   .         Fast Shear Azimuth            : 
TLFamily_GR_TMG    .         Gamma Ray                     : 
TLFamily_MAXXENE_OVERALL .         Acoustic Energy               : 
TLFamily_MD        .         Measured Depth                : 
TLFamily_MINXENE_OVERALL .         Acoustic Energy               : 
TLFamily_PR_Fast   .         Poisson Ratio (Dynamic)       : 
TLFamily_RB        .         Relative Bearing              : 
TLFamily_SENSOR_AZIM_QCI .         Sensor Azimuth                : 
TLFamily_SLOANI    .         Acoustic Anisotropy           : 
TLFamily_SPHI      .         Total Porosity                : 
TLFamily_TDIF_ALT_OVERALL .         Time Interval                 : 
TLFamily_TDIF_ORG_OVERALL .         Time Interval                 : 
TLFamily_TIMANI    .         Acoustic Anisotropy           : 
TLFamily_TNPH      .         Thermal Neutron Porosity      : 
TLFamily_TW_B_L6   .         Travel Time                   : 
TLFamily_TW_E_L6   .         Travel Time                   : 
TLFamily_VPVS_Fast .         VpVs (Compressional To Shear) Ratio: 
TLFamily_XENEDIF   .         Acoustic Energy               : 
~Curve Information
#_______________________________________________________________________________
#
#LOGNAME           .UNIT     LOG_ID                        : DESCRIPTION
#_______________________________________________________________________________
MD                 .ft                                     : Measured Depth 
AZIM               .deg                                    : Measured Azimuth 
BS_RM              .in                                     : Bit Size 
C1_24              .in                                     : Caliper Section 1, Pads 2-4 
DEVI               .deg                                    : Hole Deviation 
DTCO_MPS_R         .us/ft                                  : Compressional slowness 
DTSH_FAST          .us/ft                                  : Shear slowness 
DTSH_SLOW          .us/ft                                  : Shear slowness 
FSA_ERRMINUS       .deg                                    : Fast shear azimuth error minus(TOH REF90) - swapped 
FSA_ERRPLUS        .deg                                    : Fast shear azimuth error plus(TOH REF90) - swapped 
FSA_NAZ_IN         .deg                                    : Fast Shear Azimuth in Anisotropic Intervals 
FSA_TOH            .deg                                    : Fast shear azimuth(TOH REF90) - overall - swapped 
GR_TMG             .gAPI                                   : Gamma Ray 
MAXXENE_OVERALL    .unitless                               : Maximum cross energy - overall 
MINXENE_OVERALL    .unitless                               : Minimum cross energy - overall 
PR_Fast            .unitless                               : Fast Poisson's Ratio 
RB                 .deg                                    : Relative Bearing 
SENSOR_AZIM_QCI    .deg                                    : Tool azimuth for input QC 
SLOANI             .%                                      : Slowness based anisotropy 
SPHI               .ft3/ft3                                : Total porosity from Sonic 
TDIF_ALT_OVERALL   .s                                      : Arrival time difference between fast and slow waves(alternate) - overall - swapped 
TDIF_ORG_OVERALL   .s                                      : Arrival time difference between fast and slow waves(original) - overall - swapped 
TIMANI             .%                                      : Time based anisotropy 
TNPH               .ft3/ft3                                : Thermal Neutron Porosity (Ratio Method) in Selected Lithology 
TW_B_L6            .us                                     : Time window begin - packed 
TW_E_L6            .us                                     : Time window end - packed 
VPVS_Fast          .unitless                               : Fast VPVS 
XENEDIF            .unitless                               : Energy based anisotropy 
~Ascii
# ...
4570.0000  0.0000     8.7500     8.9798     3.0952     51.9921    100.4179   105.3954   18.3043    28.4203    23.3623    23.3623    168.6830   0.1180     0.0291     0.3169     307.2200   304.5575   4.8370     0.0311     0.0000     -0.0003    -33.2215   0.0331     947.3478   1947.3477  1.9314     8.8867    
4570.5000  0.0000     8.7500     8.8847     3.1644     52.1465    99.7202    106.5565   19.7790    29.1134    24.4462    24.4462    171.3843   0.1280     0.0293     0.3118     307.2200   305.0125   6.6282     0.0322     0.0000     -0.0003    -33.5796   0.0319     947.6189   1947.6189  1.9123     9.8753    
4571.0000  0.0000     8.7500     8.8226     3.1165     52.5362    99.4419    107.5300   20.7692    29.6389    25.2041    25.2041    170.7841   0.1357     0.0294     0.3064     307.9100   305.2593   7.8156     0.0349     0.0000     -0.0003    -33.8330   0.0326     947.9075   1947.9076  1.8928     10.6263   
4571.5000  0.0000     8.7500     8.8283     3.0065     52.8432    99.3795    108.1594   21.5198    29.9651    25.7424    25.7424    174.9861   0.1428     0.0295     0.3029     307.9100   305.5400   8.4609     0.0371     0.0000     -0.0003    -34.0223   0.0337     948.4229   1948.4229  1.8806     11.3356   
4572.0000  0.0000     8.7500     8.8572     3.1175     52.8155    99.4453    108.4541   22.1810    30.1203    26.1507    26.1507    174.4962   0.1494     0.0293     0.3036     307.9200   305.8206   8.6666     0.0369     0.0000     -0.0003    -34.1921   0.0339     948.6277   1948.6277  1.8829     12.0184   
4572.5000  0.0000     8.7500     8.9114     3.2027     52.6132    99.7766    108.1948   22.7098    29.9892    26.3495    26.3495    193.8954   0.1561     0.0287     0.3074     307.9200   305.8475   8.0955     0.0355     -0.0001    -0.0002    -25.6866   0.0308     947.8828   1947.8828  1.8964     12.7393   
4573.0000  0.0000     8.7500     8.9484     3.1426     52.4301    100.4531   107.3104   23.1294    29.7180    26.4237    26.4237    176.4868   0.1658     0.0284     0.3128     308.1100   305.8625   6.6010     0.0342     -0.0002    -0.0001    -8.3973    0.0278     946.6686   1946.6685  1.9159     13.7377   
4573.5000  0.0000     8.7500     8.9505     3.1962     52.2046    101.2455   105.8577   23.2926    29.5086    26.4006    26.4006    176.6870   0.1752     0.0286     0.3189     308.1100   306.0200   4.4541     0.0326     -0.0003    0.0000     0.4598     0.0265     945.4445   1945.4443  1.9394     14.6627   
4574.0000  0.0000     8.7500     8.9410     3.2335     51.9611    101.7598   104.2572   23.2059    29.3722    26.2890    26.2890    179.7885   0.1816     0.0289     0.3236     308.5800   306.3200   2.4244     0.0308     -0.0003    0.0000     0.7218     0.0289     944.3987   1944.3987  1.9584     15.2653   
4574.5000  0.0000     8.7500     8.8783     3.2962     51.8091    101.8131   102.9383   22.8936    29.2635    -999.2500  26.0786    169.2832   0.1844     0.0290     0.3253     308.5800   306.6575   1.0991     0.0298     -0.0003    0.0000     0.9269     0.0304     943.1988   1943.1987  1.9652     15.5337   
4575.0000  0.0000     8.7500     8.8342     3.3387     51.8176    101.6400   102.1906   22.6245    29.2137    -999.2500  25.9191    172.7349   0.1851     0.0290     0.3244     308.9600   307.0325   0.5402     0.0298     -0.0003    0.0000     1.0355     0.0311     941.9203   1941.9203  1.9615     15.6031   
4575.5000  0.0000     8.7500     8.8577     3.1331     51.8562    101.4488   101.8919   22.5135    29.2059    -999.2500  25.8597    183.5404   0.1847     0.0290     0.3232     308.9600   307.2200   0.4358     0.0301     -0.0003    0.0000     1.0735     0.0296     941.0002   1941.0002  1.9563     15.5679   
4576.0000  0.0000     8.7500     8.9062     2.8766     51.8485    101.3582   101.8550   22.4738    29.2153    -999.2500  25.8445    170.0837   0.1834     0.0291     0.3228     309.0700   307.3925   0.4889     0.0300     -0.0003    0.0000     1.0653     0.0292     940.7484   1940.7485  1.9549     15.4317   
4576.5000  0.0000     8.7500     8.9344     2.8891     51.9661    101.5303   102.1279   22.4608    29.2508    -999.2500  25.8558    164.3308   0.1807     0.0292     0.3225     309.0700   307.7375   0.5869     0.0309     -0.0003    0.0000     0.9864     0.0289     941.2129   1941.2129  1.9538     15.1505   
4577.0000  0.0000     8.7500     8.9357     3.3302     52.3280    102.0641   102.6985   22.4382    29.3090    -999.2500  25.8736    162.2799   0.1767     0.0295     0.3217     309.1100   307.9125   0.6196     0.0334     -0.0003    0.0000     0.8243     0.0295     942.0020   1942.0020  1.9505     14.7210   
4577.5000  0.0000     8.7500     8.9090     3.2706     52.8675    103.0300   103.5620   22.2881    29.4121    -999.2500  25.8501    182.0396   0.1710     0.0303     0.3213     309.1100   307.9175   0.5150     0.0373     -0.0003    0.0000     0.5905     0.0295     943.0387   1943.0386  1.9488     14.0688   
4578.0000  0.0000     8.7500     8.8485     3.1039     53.3806    104.3342   104.7149   21.8624    29.6585    -999.2500  25.7604    192.3946   0.1638     0.0325     0.3227     309.6000   307.9675   0.3642     0.0409     -0.0003    0.0000     0.3378     0.0301     944.0692   1944.0693  1.9545     13.1254   
4578.5000  0.0000     8.7500     8.8363     2.9937     53.7132    105.4745   105.7679   21.3716    30.0081    -999.2500  25.6898    167.3323   0.1573     0.0352     0.3249     309.6000   308.0625   0.2778     0.0432     -0.0003    0.0000     -2.0298    0.0305     944.6774   1944.6775  1.9637     12.2156   
4579.0000  0.0000     8.7500     8.8858     3.3074     53.8623    106.2974   106.5924   21.0087    30.6568    -999.2500  25.8327    165.4815   0.1507     0.0377     0.3273     309.8500   308.1100   0.2771     0.0443     -0.0001    -0.0002    -19.1029   0.0299     945.3354   1945.3354  1.9735     11.3043   
4579.5000  0.0000     8.7500     8.9344     3.2893     53.8094    106.7051   107.0732   20.8630    31.9551    -999.2500  26.4090    174.9861   0.1431     0.0407     0.3295     309.8500   308.3450   0.3443     0.0439     0.0000     -0.0003    -33.7510   0.0306     945.7952   1945.7952  1.9830     10.2379   
4580.0000  0.0000     8.7500     8.9857     3.1799     53.5030    106.3043   106.8196   21.9090    34.2788    -999.2500  28.0939    170.9340   0.1391     0.0443     0.3304     310.2000   308.6750   0.4836     0.0417     0.0000     -0.0003    -33.3942   0.0325     945.3263   1945.3264  1.9869     9.4858    
4580.5000  0.0000     8.7500     8.9759     3.2646     53.0734    105.6564   106.3175   23.8541    36.5841    -999.2500  30.2191    170.3338   0.1395     0.0469     0.3313     310.2000   308.8650   0.6238     0.0387     0.0000     -0.0003    -33.1028   0.0331     944.9316   1944.9316  1.9908     9.2550    
4581.0000  0.0000     8.7500     8.8898     3.1982     52.7870    105.2676   106.0092   25.5053    38.0032    -999.2500  31.7543    170.7841   0.1397     0.0480     0.3320     310.3200   308.9875   0.7020     0.0367     0.0000     -0.0003    -32.8975   0.0305     945.3497   1945.3497  1.9942     9.1616    
4581.5000  0.0000     8.7500     8.8455     3.1718     52.7455    105.0582   105.8332   26.7965    39.1755    -999.2500  32.9860    163.0802   0.1378     0.0491     0.3315     310.3200   309.0425   0.7350     0.0364     0.0000     -0.0003    -32.6671   0.0270     946.2007   1946.2007  1.9918     8.8613    
4582.0000  0.0000     8.7500     8.8572     3.2454     52.8578    105.0441   105.8083   27.5180    40.4427    -999.2500  33.9804    185.3412   0.1338     0.0508     0.3305     310.3000   309.0800   0.7248     0.0372     0.0000     -0.0003    -32.4573   0.0261     947.0748   1947.0748  1.9873     8.3034    
4582.5000  0.0000     8.7500     8.9300     3.0927     53.0665    105.1480   105.8552   27.7418    41.8656    -999.2500  34.8037    177.8376   0.1292     0.0527     0.3291     310.3000   309.1000   0.6703     0.0387     0.0000     -0.0003    -32.3697   0.0278     947.3921   1947.3922  1.9814     7.6448    
