~Version
 VERS              .         2.0                           : CWLS LOG ASCII STANDARD - VERSION 2.0
 WRAP              .         NO                            : ONE LINE PER DEPTH STEP
 DLM               .         SPACE                         : DELIMITING CHARACTER(SPACE TAB OR COMMA)
~Well Information
#_______________________________________________________________________________
#
#PARAMETER_NAME    .UNIT     VALUE                         : DESCRIPTION
#_______________________________________________________________________________
STRT               .ft       3452.0000                     : First reference value
STOP               .ft       9050.0000                     : Last reference value
STEP               .ft       0.5000                        : Step increment
NULL               .         -999.25                       : Missing value
COMP               .         University of Utah            : Company
WELL               .         FORGE 56-32 Monitor Well      : Well name
FLD                .         Wildcat                       : Field
LOC                .                                       : Location
CNTY               .                                       : County
STAT               .         Utah                          : State
CTRY               .         USA                           : Country
SRVC               .         Schlumberger                  : Service Company
DATE               .         27-Feb-2021                   : Date
API                .                                       : API number
APD                .ft       30.4                          : Elevation of Depth Reference (LMF) Above Permanent Datum
BHS                .         OPEN                          : Borehole Status (Open or Cased Hole)
BHT                .degF     306                           : Bottom Hole Temperature
BLI                .ft       9105                          : Bottom Log Interval
BS                 .in       8.75                          : Bit Size
CBDR               .ft       3100                          : Casing Bottom of Driller
CBLO               .ft       3100                          : Logger Casing Shoe Depth
CSIZ               .in       9.625                         : Current Casing Size
CWEI               .lbm/ft   36                            : Casing Weight
DCS                .         27-Feb-2021                   : Date Circulation Stopped
DFD                .lbm/gal  9                             : Drilling Fluid Density
DFT                .         WBM                           : Drilling Fluid Type
DLAB               .         27-Feb-2021                   : Date Logger At Bottom
EDF                .ft       5451.72                       : Elevation of Drill Floor
EGL                .ft       5451.72                       : Elevation of Ground Level
EKB                .ft       5482.12                       : Elevation of Kelly Bushing
EPD                .ft       5451.72                       : Elevation of Permanent Datum (PDAT) above Mean Sea Level
LMF                .         KB                            : Logging Measured From (Name of Logging Elevation Reference)
LUL                .         Fort Morgan, CO               : Logging Unit Location
LUN                .         2801                          : Logging Unit Number
LATI               .         38° 30' 14.512" N             : Latitude
LONG               .         112° 53' 11.354" W            : Longitude
MCST               .degF     68                            : Mudcake Sample Temperature
MFST               .degF     68                            : Mud Filtrate Sample Temperature
MRT                .degF     -999.25                       : Maximum Recorded Temperature
MST                .degF     68                            : Mud Sample Temperature
PDAT               .         GL                            : Permanent Datum
PRODUCER-CODE      .         440                           : 
PRODUCER-NAME      .         Schlumberger                  : 
RMB                .ohm.m    0.04781149                    : Resistivity of Mud at Bottom Hole Temperature
RMCS               .ohm.m    -999.25                       : Resistivity of Mud Cake Sample
RMFS               .ohm.m    0.15                          : Resistivity of Mud Filtrate Sample
RMS                .ohm.m    0.2                           : Resistivity of Mud Sample
RUN                .         ONE                           : Run Number
TCS                .         16_45_00                      : Time Circulation Stopped
TDD                .ft       9145                          : Driller Total Depth
TDL                .ft       9145                          : Logger Total Depth
TLAB               .         17_00_00                      : Time Logger At Bottom
TLI                .ft       3500                          : Top Log Interval
~Parameter Information Block
#_______________________________________________________________________________
#
#PARAMETER_NAME    .UNIT     VALUE                         : DESCRIPTION
#_______________________________________________________________________________
SET                .         1PnS-Aniso_DM_las             : 
TLFamily_AZIM      .         Hole Azimuth                  : 
TLFamily_BS_RM     .         Bit Size                      : 
TLFamily_C1_24     .         Caliper                       : 
TLFamily_DEVI      .         Hole Deviation                : 
TLFamily_DTCO_MPS_R .         Compressional Slowness        : 
TLFamily_DTSH_FAST .         Fast Shear Slowness           : 
TLFamily_DTSH_SLOW .         Slow Shear Slowness           : 
TLFamily_FSA_ERRMINUS .         Fast Shear Azimuth            : 
TLFamily_FSA_ERRPLUS .         Fast Shear Azimuth            : 
TLFamily_FSA_NAZ_IN .         Fast Shear Azimuth            : 
TLFamily_FSA_TOH   .         Fast Shear Azimuth            : 
TLFamily_GR_TMG    .         Gamma Ray                     : 
TLFamily_MAXXENE_OVERALL .         Acoustic Energy               : 
TLFamily_MD        .         Measured Depth                : 
TLFamily_MINXENE_OVERALL .         Acoustic Energy               : 
TLFamily_PR_Fast   .         Poisson Ratio (Dynamic)       : 
TLFamily_RB        .         Relative Bearing              : 
TLFamily_SENSOR_AZIM_QCI .         Sensor Azimuth                : 
TLFamily_SLOANI    .         Acoustic Anisotropy           : 
TLFamily_SPHI      .         Total Porosity                : 
TLFamily_TDIF_ALT_OVERALL .         Time Interval                 : 
TLFamily_TDIF_ORG_OVERALL .         Time Interval                 : 
TLFamily_TIMANI    .         Acoustic Anisotropy           : 
TLFamily_TNPH      .         Thermal Neutron Porosity      : 
TLFamily_TW_B_L6   .         Travel Time                   : 
TLFamily_TW_E_L6   .         Travel Time                   : 
TLFamily_VPVS_Fast .         VpVs (Compressional To Shear) Ratio: 
TLFamily_XENEDIF   .         Acoustic Energy               : 
~Curve Information
#_______________________________________________________________________________
#
#LOGNAME           .UNIT     LOG_ID                        : DESCRIPTION
#_______________________________________________________________________________
MD                 .ft                                     : Measured Depth 
AZIM               .deg                                    : Measured Azimuth 
BS_RM              .in                                     : Bit Size 
C1_24              .in                                     : Caliper Section 1, Pads 2-4 
DEVI               .deg                                    : Hole Deviation 
DTCO_MPS_R         .us/ft                                  : Compressional slowness 
DTSH_FAST          .us/ft                                  : Shear slowness 
DTSH_SLOW          .us/ft                                  : Shear slowness 
FSA_ERRMINUS       .deg                                    : Fast shear azimuth error minus(TOH REF90) - swapped 
FSA_ERRPLUS        .deg                                    : Fast shear azimuth error plus(TOH REF90) - swapped 
FSA_NAZ_IN         .deg                                    : Fast Shear Azimuth in Anisotropic Intervals 
FSA_TOH            .deg                                    : Fast shear azimuth(TOH REF90) - overall - swapped 
GR_TMG             .gAPI                                   : Gamma Ray 
MAXXENE_OVERALL    .unitless                               : Maximum cross energy - overall 
MINXENE_OVERALL    .unitless                               : Minimum cross energy - overall 
PR_Fast            .unitless                               : Fast Poisson's Ratio 
RB                 .deg                                    : Relative Bearing 
SENSOR_AZIM_QCI    .deg                                    : Tool azimuth for input QC 
SLOANI             .%                                      : Slowness based anisotropy 
SPHI               .ft3/ft3                                : Total porosity from Sonic 
TDIF_ALT_OVERALL   .s                                      : Arrival time difference between fast and slow waves(alternate) - overall - swapped 
TDIF_ORG_OVERALL   .s                                      : Arrival time difference between fast and slow waves(original) - overall - swapped 
TIMANI             .%                                      : Time based anisotropy 
TNPH               .ft3/ft3                                : Thermal Neutron Porosity (Ratio Method) in Selected Lithology 
TW_B_L6            .us                                     : Time window begin - packed 
TW_E_L6            .us                                     : Time window end - packed 
VPVS_Fast          .unitless                               : Fast VPVS 
XENEDIF            .unitless                               : Energy based anisotropy 
~Ascii
# ...
5688.0000  0.0000     8.7500     9.0998     4.5805     53.9099    95.2985    95.7511    12.3373    22.5609    -999.2500  17.4491    274.7851   0.1513     0.0381     0.2647     294.5500   294.0325   0.4738     0.0446     -0.0003    0.0000     0.7721     0.0007     924.2130   1924.2129  1.7677     11.3206   
5688.5000  0.0000     8.7500     9.0619     3.9396     53.7792    95.1688    95.8694    12.5407    23.5265    -999.2500  18.0336    276.7361   0.1489     0.0399     0.2654     294.5500   294.3075   0.7334     0.0437     -0.0003    0.0000     0.7802     0.0005     925.0033   1925.0034  1.7696     10.8974   
5689.0000  0.0000     8.7500     9.0364     4.6932     53.7138    95.1255    95.2714    12.6205    24.1255    -999.2500  18.3730    277.6967   0.1478     0.0413     0.2660     294.4700   294.4179   0.1533     0.0432     -0.0003    0.0000     0.8074     0.0005     925.3845   1925.3846  1.7710     10.6552   
5689.5000  0.0000     8.7500     9.0168     3.4620     53.6745    95.2527    95.9404    12.8337    25.4651    -999.2500  19.1494    287.6914   0.1472     0.0444     0.2674     294.4700   294.6309   0.7193     0.0430     -0.0003    0.0000     0.9066     0.0010     925.9507   1925.9507  1.7746     10.2772   
5690.0000  0.0000     8.7500     9.0030     3.2255     53.7713    95.5053    96.2548    13.0890    26.5396    -999.2500  19.8143    272.0839   0.1482     0.0468     0.2679     294.3800   294.7550   0.7817     0.0436     -0.0003    0.0000     0.9990     0.0026     926.3710   1926.3710  1.7761     10.1330   
5690.5000  0.0000     8.7500     8.9893     3.5924     53.9005    95.7692    95.8666    13.4471    27.1172    -999.2500  20.2822    271.8138   0.1514     0.0478     0.2682     294.3800   294.8792   0.1016     0.0446     -0.0003    0.0000     1.0907     0.0036     926.6306   1926.6306  1.7768     10.3589   
5691.0000  0.0000     8.7500     9.0026     3.2776     53.9635    96.0743    96.7514    13.8544    27.4863    -999.2500  20.6704    246.7213   0.1549     0.0478     0.2696     294.3300   294.7863   0.7023     0.0450     -0.0003    0.0000     1.1726     0.0046     926.6412   1926.6412  1.7804     10.7101   
5691.5000  0.0000     8.7500     9.0283     3.8090     53.9671    96.2612    96.7659    14.0879    27.7535    -999.2500  20.9207    253.9249   0.1562     0.0479     0.2708     294.3300   294.7375   0.5230     0.0450     -0.0003    0.0000     1.2192     0.0036     926.3003   1926.3003  1.7837     10.8207   
5692.0000  0.0000     8.7500     9.0452     3.6888     53.9566    96.6218    97.4022    14.5472    28.3632    -999.2500  21.4552    246.8415   0.1582     0.0486     0.2734     294.0600   294.6550   0.8045     0.0450     -0.0003    0.0000     1.3257     0.0024     925.4930   1925.4929  1.7907     10.9606   
5692.5000  0.0000     8.7500     9.0263     3.7201     53.9003    96.9386    97.2735    14.7870    29.2096    -999.2500  21.9983    260.9783   0.1589     0.0500     0.2762     294.0600   294.5850   0.3449     0.0446     -0.0003    0.0000     1.4372     0.0012     924.7144   1924.7144  1.7985     10.8832   
5693.0000  0.0000     8.7500     8.9966     2.5970     53.7804    97.1633    97.3815    14.5519    30.3932    -999.2500  22.4726    283.3394   0.1579     0.0527     0.2792     293.9000   294.5300   0.2243     0.0437     -0.0003    0.0000     1.5187     0.0006     924.3495   1924.3495  1.8067     10.5181   
5693.5000  0.0000     8.7500     8.9924     3.3605     53.6728    97.2614    97.8869    13.8996    31.5784    -999.2500  22.7390    291.2634   0.1560     0.0557     0.2811     293.9000   294.4900   0.6411     0.0429     -0.0003    0.0000     1.5506     0.0013     924.3758   1924.3757  1.8121     10.0295   
5694.0000  0.0000     8.7500     8.9944     3.5783     53.6825    97.1599    97.2781    12.9704    32.1576    -999.2500  22.5640    283.0391   0.1546     0.0577     0.2803     293.8200   294.4475   0.1216     0.0430     -0.0003    0.0000     1.5193     0.0017     924.7457   1924.7457  1.8099     9.6821    
5694.5000  0.0000     8.7500     9.0104     3.2590     53.8059    96.7940    97.0626    11.8319    31.9707    -999.2500  21.9013    310.2027   0.1535     0.0588     0.2764     293.8200   294.4025   0.2772     0.0439     -0.0003    0.0000     1.3998     0.0022     925.5084   1925.5083  1.7989     9.4741    
5695.0000  0.0000     8.7500     9.0495     3.4522     53.9600    96.3800    96.5266    10.8546    31.4742    -999.2500  21.1644    308.3118   0.1521     0.0591     0.2717     294.0800   294.3794   0.1520     0.0450     -0.0003    0.0000     1.2436     0.0021     926.1571   1926.1570  1.7861     9.2988    
5695.5000  0.0000     8.7500     9.0396     3.2869     54.0832    95.9230    96.5484    9.8473     30.6095    -999.2500  20.2284    333.9142   0.1497     0.0589     0.2670     294.0800   294.3547   0.6499     0.0459     -0.0003    0.0000     1.0283     0.0016     926.5586   1926.5586  1.7736     9.0723    
5696.0000  0.0000     8.7500     9.0163     2.8609     54.1808    95.4903    96.2848    8.8999     29.9139    -999.2500  19.4069    296.0958   0.1461     0.0588     0.2626     294.3200   294.3303   0.8286     0.0465     -0.0003    0.0000     0.8289     -0.0001    927.0920   1927.0920  1.7624     8.7289    
5696.5000  0.0000     8.7500     9.0171     3.0141     54.1986    95.1171    95.6893    8.0921     29.9047    -999.2500  18.9984    295.1053   0.1409     0.0594     0.2596     294.3200   294.2625   0.5998     0.0467     -0.0003    0.0000     0.6927     -0.0007    927.8102   1927.8102  1.7550     8.1440    
5697.0000  0.0000     8.7500     9.0176     3.1042     54.0618    94.7619    95.5354    7.2103     30.0254    -999.2500  18.6178    295.4952   0.1353     0.0605     0.2587     294.3000   294.1275   0.8129     0.0457     -0.0003    0.0000     0.5384     -0.0001    928.3591   1928.3591  1.7528     7.4722    
5697.5000  0.0000     8.7500     9.0227     3.1001     53.8473    94.6969    95.4018    6.5124     29.9146    -999.2500  18.2135    298.9471   0.1319     0.0611     0.2611     294.3000   294.0200   0.7416     0.0442     -0.0003    0.0000     0.3980     0.0010     928.5410   1928.5410  1.7586     7.0756    
5698.0000  0.0000     8.7500     9.0363     3.2290     53.6906    94.9162    95.2181    5.8883     29.4106    -999.2500  17.6495    303.7495   0.1304     0.0611     0.2647     293.8300   293.9400   0.3176     0.0431     -0.0003    0.0000     0.2657     0.0013     928.5378   1928.5378  1.7678     6.9311    
5698.5000  0.0000     8.7500     9.0411     3.3436     53.5987    95.2530    96.0163    5.5523     28.8048    -999.2500  17.1786    302.9990   0.1303     0.0609     0.2683     293.8300   293.8800   0.7981     0.0424     -0.0003    0.0000     0.1659     0.0004     928.3650   1928.3650  1.7772     6.9402    
5699.0000  0.0000     8.7500     9.0250     3.3254     53.5414    95.6239    96.0080    5.7842     28.2867    -999.2500  17.0355    331.1230   0.1315     0.0602     0.2717     294.1600   293.8400   0.4009     0.0420     -0.0003    0.0000     0.1350     0.0002     928.2939   1928.2939  1.7860     7.1307    
5699.5000  0.0000     8.7500     9.0124     3.2010     53.5833    96.0741    96.9967    6.4657     27.9766    -999.2500  17.2211    289.0422   0.1334     0.0590     0.2742     294.1600   293.8850   0.9557     0.0423     -0.0003    0.0000     0.1761     -0.0001    928.6233   1928.6233  1.7930     7.4470    
5700.0000  0.0000     8.7500     9.0111     3.5161     53.7188    96.5142    96.6848    7.4086     28.0425    -999.2500  17.7255    290.6929   0.1351     0.0576     0.2756     294.4900   294.0150   0.1766     0.0433     -0.0003    0.0000     0.2626     0.0011     929.2553   1929.2554  1.7967     7.7521    
5700.5000  0.0000     8.7500     9.0125     3.2049     53.8534    96.7254    97.1455    8.6037     28.3471    -999.2500  18.4754    336.6458   0.1366     0.0558     0.2754     294.4900   294.1400   0.4334     0.0442     -0.0003    0.0000     0.3850     0.0012     930.1870   1930.1870  1.7961     8.0810    
