~Version
 VERS              .         2.0                           : CWLS LOG ASCII STANDARD - VERSION 2.0
 WRAP              .         NO                            : ONE LINE PER DEPTH STEP
 DLM               .         SPACE                         : DELIMITING CHARACTER(SPACE TAB OR COMMA)
~Well Information
#_______________________________________________________________________________
#
#PARAMETER_NAME    .UNIT     VALUE                         : DESCRIPTION
#_______________________________________________________________________________
STRT               .ft       3452.0000                     : First reference value
STOP               .ft       9050.0000                     : Last reference value
STEP               .ft       0.5000                        : Step increment
NULL               .         -999.25                       : Missing value
COMP               .         University of Utah            : Company
WELL               .         FORGE 56-32 Monitor Well      : Well name
FLD                .         Wildcat                       : Field
LOC                .                                       : Location
CNTY               .                                       : County
STAT               .         Utah                          : State
CTRY               .         USA                           : Country
SRVC               .         Schlumberger                  : Service Company
DATE               .         27-Feb-2021                   : Date
API                .                                       : API number
APD                .ft       30.4                          : Elevation of Depth Reference (LMF) Above Permanent Datum
BHS                .         OPEN                          : Borehole Status (Open or Cased Hole)
BHT                .degF     306                           : Bottom Hole Temperature
BLI                .ft       9105                          : Bottom Log Interval
BS                 .in       8.75                          : Bit Size
CBDR               .ft       3100                          : Casing Bottom of Driller
CBLO               .ft       3100                          : Logger Casing Shoe Depth
CSIZ               .in       9.625                         : Current Casing Size
CWEI               .lbm/ft   36                            : Casing Weight
DCS                .         27-Feb-2021                   : Date Circulation Stopped
DFD                .lbm/gal  9                             : Drilling Fluid Density
DFT                .         WBM                           : Drilling Fluid Type
DLAB               .         27-Feb-2021                   : Date Logger At Bottom
EDF                .ft       5451.72                       : Elevation of Drill Floor
EGL                .ft       5451.72                       : Elevation of Ground Level
EKB                .ft       5482.12                       : Elevation of Kelly Bushing
EPD                .ft       5451.72                       : Elevation of Permanent Datum (PDAT) above Mean Sea Level
LMF                .         KB                            : Logging Measured From (Name of Logging Elevation Reference)
LUL                .         Fort Morgan, CO               : Logging Unit Location
LUN                .         2801                          : Logging Unit Number
LATI               .         38° 30' 14.512" N             : Latitude
LONG               .         112° 53' 11.354" W            : Longitude
MCST               .degF     68                            : Mudcake Sample Temperature
MFST               .degF     68                            : Mud Filtrate Sample Temperature
MRT                .degF     -999.25                       : Maximum Recorded Temperature
MST                .degF     68                            : Mud Sample Temperature
PDAT               .         GL                            : Permanent Datum
PRODUCER-CODE      .         440                           : 
PRODUCER-NAME      .         Schlumberger                  : 
RMB                .ohm.m    0.04781149                    : Resistivity of Mud at Bottom Hole Temperature
RMCS               .ohm.m    -999.25                       : Resistivity of Mud Cake Sample
RMFS               .ohm.m    0.15                          : Resistivity of Mud Filtrate Sample
RMS                .ohm.m    0.2                           : Resistivity of Mud Sample
RUN                .         ONE                           : Run Number
TCS                .         16_45_00                      : Time Circulation Stopped
TDD                .ft       9145                          : Driller Total Depth
TDL                .ft       9145                          : Logger Total Depth
TLAB               .         17_00_00                      : Time Logger At Bottom
TLI                .ft       3500                          : Top Log Interval
~Parameter Information Block
#_______________________________________________________________________________
#
#PARAMETER_NAME    .UNIT     VALUE                         : DESCRIPTION
#_______________________________________________________________________________
SET                .         1PnS-Aniso_DM_las             : 
TLFamily_AZIM      .         Hole Azimuth                  : 
TLFamily_BS_RM     .         Bit Size                      : 
TLFamily_C1_24     .         Caliper                       : 
TLFamily_DEVI      .         Hole Deviation                : 
TLFamily_DTCO_MPS_R .         Compressional Slowness        : 
TLFamily_DTSH_FAST .         Fast Shear Slowness           : 
TLFamily_DTSH_SLOW .         Slow Shear Slowness           : 
TLFamily_FSA_ERRMINUS .         Fast Shear Azimuth            : 
TLFamily_FSA_ERRPLUS .         Fast Shear Azimuth            : 
TLFamily_FSA_NAZ_IN .         Fast Shear Azimuth            : 
TLFamily_FSA_TOH   .         Fast Shear Azimuth            : 
TLFamily_GR_TMG    .         Gamma Ray                     : 
TLFamily_MAXXENE_OVERALL .         Acoustic Energy               : 
TLFamily_MD        .         Measured Depth                : 
TLFamily_MINXENE_OVERALL .         Acoustic Energy               : 
TLFamily_PR_Fast   .         Poisson Ratio (Dynamic)       : 
TLFamily_RB        .         Relative Bearing              : 
TLFamily_SENSOR_AZIM_QCI .         Sensor Azimuth                : 
TLFamily_SLOANI    .         Acoustic Anisotropy           : 
TLFamily_SPHI      .         Total Porosity                : 
TLFamily_TDIF_ALT_OVERALL .         Time Interval                 : 
TLFamily_TDIF_ORG_OVERALL .         Time Interval                 : 
TLFamily_TIMANI    .         Acoustic Anisotropy           : 
TLFamily_TNPH      .         Thermal Neutron Porosity      : 
TLFamily_TW_B_L6   .         Travel Time                   : 
TLFamily_TW_E_L6   .         Travel Time                   : 
TLFamily_VPVS_Fast .         VpVs (Compressional To Shear) Ratio: 
TLFamily_XENEDIF   .         Acoustic Energy               : 
~Curve Information
#_______________________________________________________________________________
#
#LOGNAME           .UNIT     LOG_ID                        : DESCRIPTION
#_______________________________________________________________________________
MD                 .ft                                     : Measured Depth 
AZIM               .deg                                    : Measured Azimuth 
BS_RM              .in                                     : Bit Size 
C1_24              .in                                     : Caliper Section 1, Pads 2-4 
DEVI               .deg                                    : Hole Deviation 
DTCO_MPS_R         .us/ft                                  : Compressional slowness 
DTSH_FAST          .us/ft                                  : Shear slowness 
DTSH_SLOW          .us/ft                                  : Shear slowness 
FSA_ERRMINUS       .deg                                    : Fast shear azimuth error minus(TOH REF90) - swapped 
FSA_ERRPLUS        .deg                                    : Fast shear azimuth error plus(TOH REF90) - swapped 
FSA_NAZ_IN         .deg                                    : Fast Shear Azimuth in Anisotropic Intervals 
FSA_TOH            .deg                                    : Fast shear azimuth(TOH REF90) - overall - swapped 
GR_TMG             .gAPI                                   : Gamma Ray 
MAXXENE_OVERALL    .unitless                               : Maximum cross energy - overall 
MINXENE_OVERALL    .unitless                               : Minimum cross energy - overall 
PR_Fast            .unitless                               : Fast Poisson's Ratio 
RB                 .deg                                    : Relative Bearing 
SENSOR_AZIM_QCI    .deg                                    : Tool azimuth for input QC 
SLOANI             .%                                      : Slowness based anisotropy 
SPHI               .ft3/ft3                                : Total porosity from Sonic 
TDIF_ALT_OVERALL   .s                                      : Arrival time difference between fast and slow waves(alternate) - overall - swapped 
TDIF_ORG_OVERALL   .s                                      : Arrival time difference between fast and slow waves(original) - overall - swapped 
TIMANI             .%                                      : Time based anisotropy 
TNPH               .ft3/ft3                                : Thermal Neutron Porosity (Ratio Method) in Selected Lithology 
TW_B_L6            .us                                     : Time window begin - packed 
TW_E_L6            .us                                     : Time window end - packed 
VPVS_Fast          .unitless                               : Fast VPVS 
XENEDIF            .unitless                               : Energy based anisotropy 
~Ascii
# ...
8665.0000  0.0000     8.7500     8.6721     2.4679     55.8758    94.6425    97.9005    54.2508    64.2909    59.2709    59.2709    177.9875   0.0781     0.0282     0.2325     348.4500   347.7875   3.3842     0.0585     -0.0003    0.0000     1.2163     0.0422     959.4879   1959.4878  1.6938     4.9877    
8665.5000  0.0000     8.7500     8.6976     2.8117     56.5398    94.9548    98.2419    53.5127    63.4401    58.4764    58.4764    173.1852   0.0833     0.0289     0.2253     348.4500   348.1425   3.4028     0.0632     -0.0003    0.0000     1.3253     0.0385     958.7732   1958.7732  1.6794     5.4429    
8666.0000  0.0000     8.7500     8.6916     2.2693     56.7982    95.0852    98.2591    52.8631    62.9142    57.8887    57.8887    156.0769   0.0865     0.0293     0.2226     348.6000   348.3200   3.2832     0.0651     -0.0003    0.0000     1.3910     0.0357     958.1443   1958.1444  1.6741     5.7196    
8666.5000  0.0000     8.7500     8.6953     2.0483     56.8830    95.1974    98.0226    52.0553    62.3693    57.2123    57.2123    163.2803   0.0910     0.0296     0.2223     348.6000   348.3200   2.9243     0.0657     -0.0003    0.0000     1.4954     0.0338     957.2962   1957.2963  1.6736     6.1379    
8667.0000  0.0000     8.7500     8.6989     2.5931     56.8801    95.1916    97.7233    51.5027    62.0147    -999.2500  56.7587    167.9326   0.0943     0.0299     0.2223     348.5700   348.3525   2.6247     0.0656     -0.0003    0.0000     1.5716     0.0336     956.4673   1956.4674  1.6735     6.4410    
8667.5000  0.0000     8.7500     8.6775     2.4239     56.8087    95.0187    96.9724    50.8784    61.5014    -999.2500  56.1899    171.5345   0.1003     0.0300     0.2219     348.5700   348.4175   2.0352     0.0651     -0.0003    0.0000     1.7198     0.0343     954.7606   1954.7606  1.6726     7.0328    
8668.0000  0.0000     8.7500     8.6992     1.8322     56.7531    94.8435    96.4292    50.6866    61.2467    -999.2500  55.9666    196.2966   0.1040     0.0298     0.2211     348.6100   348.4525   1.6581     0.0647     -0.0003    0.0000     1.8160     0.0346     953.6580   1953.6581  1.6712     7.4146    
8668.5000  0.0000     8.7500     8.6723     2.4341     56.7483    94.5972    95.9151    50.7567    61.1526    -999.2500  55.9546    192.8448   0.1061     0.0294     0.2189     348.6100   348.4755   1.3835     0.0647     -0.0003    0.0000     1.8873     0.0360     952.7959   1952.7959  1.6670     7.6724    
8669.0000  0.0000     8.7500     8.6955     2.3999     56.8645    94.3144    95.4337    50.5225    61.0764    -999.2500  55.7994    181.7395   0.1066     0.0291     0.2144     348.6200   348.5408   1.1798     0.0655     -0.0003    0.0000     1.9274     0.0414     951.9806   1951.9805  1.6586     7.7456    
8669.5000  0.0000     8.7500     8.6937     2.2646     57.0966    93.9860    94.9503    50.1831    60.9873    -999.2500  55.5852    159.0783   0.1063     0.0289     0.2075     348.6200   348.6000   1.0207     0.0672     -0.0003    0.0000     1.9588     0.0483     951.3937   1951.3938  1.6461     7.7392    
8670.0000  0.0000     8.7500     8.6902     2.6256     57.4079    93.6864    94.5777    49.9473    60.8852    -999.2500  55.4162    138.5181   0.1059     0.0288     0.1994     348.5000   348.6000   0.9468     0.0694     -0.0003    0.0000     1.9860     0.0549     951.3983   1951.3983  1.6319     7.7070    
8670.5000  0.0000     8.7500     8.6874     2.4553     57.6091    93.3924    94.2110    49.7929    60.6785    -999.2500  55.2357    136.1170   0.1054     0.0286     0.1929     348.5000   348.5850   0.8727     0.0708     -0.0003    0.0000     2.0188     0.0521     951.3340   1951.3340  1.6211     7.6776    
8671.0000  0.0000     8.7500     8.6891     2.5619     57.2180    93.1569    93.8232    48.9806    60.7225    -999.2500  54.8516    129.0636   0.1020     0.0281     0.1971     349.1400   348.5732   0.7126     0.0680     -0.0003    0.0000     2.0065     0.0457     952.1465   1952.1466  1.6281     7.3834    
8671.5000  0.0000     8.7500     8.6891     1.6909     56.4618    93.2365    93.8158    48.2145    60.6998    -999.2500  54.4571    140.7692   0.0990     0.0279     0.2105     349.1400   348.5921   0.6194     0.0627     -0.0003    0.0000     1.9475     0.0395     953.6473   1953.6473  1.6513     7.1147    
8672.0000  0.0000     8.7500     8.6771     2.9770     55.6869    93.4042    93.9154    47.5413    60.4715    -999.2500  54.0064    198.6977   0.0962     0.0276     0.2243     349.2400   348.6089   0.5457     0.0572     -0.0003    0.0000     1.8772     0.0371     955.4821   1955.4822  1.6773     6.8584    
8672.5000  0.0000     8.7500     8.6747     2.5118     55.2544    93.5947    94.0483    46.8769    60.0532    -999.2500  53.4650    240.2683   0.0929     0.0272     0.2325     349.2400   348.6125   0.4835     0.0541     -0.0003    0.0000     1.7959     0.0362     957.3670   1957.3669  1.6939     6.5666    
8673.0000  0.0000     8.7500     8.7070     2.7725     54.8255    93.8768    94.2635    46.1155    60.8649    -999.2500  53.4902    237.5168   0.0848     0.0272     0.2412     349.1500   348.6141   0.4111     0.0511     -0.0003    0.0000     1.6343     0.0339     960.6406   1960.6405  1.7123     5.7625    
8673.5000  0.0000     8.7500     8.7194     4.0728     54.4702    94.4367    94.8186    46.2285    62.8965    -999.2500  54.5625    225.5609   0.0764     0.0273     0.2507     349.1500   348.5600   0.4036     0.0486     -0.0003    0.0000     1.4854     0.0325     963.3687   1963.3687  1.7337     4.9090    
8674.0000  0.0000     8.7500     8.6714     2.6155     54.4585    95.2633    95.6910    46.8134    64.3791    -999.2500  55.5963    234.4154   0.0713     0.0270     0.2573     349.1500   348.5063   0.4479     0.0485     -0.0003    0.0000     1.3914     0.0322     964.8276   1964.8276  1.7493     4.4233    
8674.5000  0.0000     8.7500     8.6607     2.5674     54.6639    96.4723    97.0002    47.2530    65.4165    -999.2500  56.3348    257.3767   0.0667     0.0268     0.2635     349.1500   348.6600   0.5457     0.0500     -0.0003    0.0000     1.3067     0.0308     966.1801   1966.1801  1.7648     3.9843    
8675.0000  0.0000     8.7500     8.6603     1.9541     55.0308    97.8307    98.5198    47.0524    65.3205    -999.2500  56.1864    243.5697   0.0658     0.0270     0.2686     349.0400   348.9800   0.7020     0.0526     -0.0003    0.0000     1.2757     0.0277     967.1703   1967.1704  1.7777     3.8736    
8675.5000  0.0000     8.7500     8.6605     2.3404     56.2599    99.0964    100.0206   46.6304    64.3655    -999.2500  55.4979    202.7498   0.0730     0.0276     0.2622     349.0400   349.1698   0.9284     0.0612     -0.0003    0.0000     1.3607     0.0237     968.0605   1968.0605  1.7614     4.5414    
8676.0000  0.0000     8.7500     8.7319     2.5788     58.2829    100.2506   101.4873   46.3927    63.5383    -999.2500  54.9655    162.3799   0.0831     0.0283     0.2447     349.0600   349.2321   1.2260     0.0756     -0.0003    0.0000     1.4878     0.0266     969.0685   1969.0686  1.7201     5.4848    
8676.5000  0.0000     8.7500     8.7673     2.5243     59.4747    101.1355   102.7584   46.4139    62.9348    -999.2500  54.6743    179.4882   0.0920     0.0288     0.2357     349.0600   349.2175   1.5919     0.0840     -0.0003    0.0000     1.6094     0.0389     970.1068   1970.1069  1.7005     6.3180    
8677.0000  0.0000     8.7500     8.7676     2.8708     60.2839    101.8635   103.9106   46.7689    62.2496    -999.2500  54.5092    172.5849   0.1018     0.0290     0.2305     348.9100   349.1725   1.9897     0.0897     -0.0003    0.0000     1.7578     0.0556     971.3674   1971.3674  1.6897     7.2880    
8677.5000  0.0000     8.7500     8.7637     2.6744     60.9770    102.2086   104.5725   47.4966    61.6058    -999.2500  54.5512    212.9549   0.1107     0.0288     0.2237     348.9100   349.1500   2.2863     0.0946     -0.0003    0.0000     1.8966     0.0612     972.5339   1972.5339  1.6762     8.1892    
