~Version
 VERS              .         2.0                           : CWLS LOG ASCII STANDARD - VERSION 2.0
 WRAP              .         NO                            : ONE LINE PER DEPTH STEP
 DLM               .         SPACE                         : DELIMITING CHARACTER(SPACE TAB OR COMMA)
~Well Information
#_______________________________________________________________________________
#
#PARAMETER_NAME    .UNIT     VALUE                         : DESCRIPTION
#_______________________________________________________________________________
STRT               .ft       3452.0000                     : First reference value
STOP               .ft       9050.0000                     : Last reference value
STEP               .ft       0.5000                        : Step increment
NULL               .         -999.25                       : Missing value
COMP               .         University of Utah            : Company
WELL               .         FORGE 56-32 Monitor Well      : Well name
FLD                .         Wildcat                       : Field
LOC                .                                       : Location
CNTY               .                                       : County
STAT               .         Utah                          : State
CTRY               .         USA                           : Country
SRVC               .         Schlumberger                  : Service Company
DATE               .         27-Feb-2021                   : Date
API                .                                       : API number
APD                .ft       30.4                          : Elevation of Depth Reference (LMF) Above Permanent Datum
BHS                .         OPEN                          : Borehole Status (Open or Cased Hole)
BHT                .degF     306                           : Bottom Hole Temperature
BLI                .ft       9105                          : Bottom Log Interval
BS                 .in       8.75                          : Bit Size
CBDR               .ft       3100                          : Casing Bottom of Driller
CBLO               .ft       3100                          : Logger Casing Shoe Depth
CSIZ               .in       9.625                         : Current Casing Size
CWEI               .lbm/ft   36                            : Casing Weight
DCS                .         27-Feb-2021                   : Date Circulation Stopped
DFD                .lbm/gal  9                             : Drilling Fluid Density
DFT                .         WBM                           : Drilling Fluid Type
DLAB               .         27-Feb-2021                   : Date Logger At Bottom
EDF                .ft       5451.72                       : Elevation of Drill Floor
EGL                .ft       5451.72                       : Elevation of Ground Level
EKB                .ft       5482.12                       : Elevation of Kelly Bushing
EPD                .ft       5451.72                       : Elevation of Permanent Datum (PDAT) above Mean Sea Level
LMF                .         KB                            : Logging Measured From (Name of Logging Elevation Reference)
LUL                .         Fort Morgan, CO               : Logging Unit Location
LUN                .         2801                          : Logging Unit Number
LATI               .         38° 30' 14.512" N             : Latitude
LONG               .         112° 53' 11.354" W            : Longitude
MCST               .degF     68                            : Mudcake Sample Temperature
MFST               .degF     68                            : Mud Filtrate Sample Temperature
MRT                .degF     -999.25                       : Maximum Recorded Temperature
MST                .degF     68                            : Mud Sample Temperature
PDAT               .         GL                            : Permanent Datum
PRODUCER-CODE      .         440                           : 
PRODUCER-NAME      .         Schlumberger                  : 
RMB                .ohm.m    0.04781149                    : Resistivity of Mud at Bottom Hole Temperature
RMCS               .ohm.m    -999.25                       : Resistivity of Mud Cake Sample
RMFS               .ohm.m    0.15                          : Resistivity of Mud Filtrate Sample
RMS                .ohm.m    0.2                           : Resistivity of Mud Sample
RUN                .         ONE                           : Run Number
TCS                .         16_45_00                      : Time Circulation Stopped
TDD                .ft       9145                          : Driller Total Depth
TDL                .ft       9145                          : Logger Total Depth
TLAB               .         17_00_00                      : Time Logger At Bottom
TLI                .ft       3500                          : Top Log Interval
~Parameter Information Block
#_______________________________________________________________________________
#
#PARAMETER_NAME    .UNIT     VALUE                         : DESCRIPTION
#_______________________________________________________________________________
SET                .         1PnS-Aniso_DM_las             : 
TLFamily_AZIM      .         Hole Azimuth                  : 
TLFamily_BS_RM     .         Bit Size                      : 
TLFamily_C1_24     .         Caliper                       : 
TLFamily_DEVI      .         Hole Deviation                : 
TLFamily_DTCO_MPS_R .         Compressional Slowness        : 
TLFamily_DTSH_FAST .         Fast Shear Slowness           : 
TLFamily_DTSH_SLOW .         Slow Shear Slowness           : 
TLFamily_FSA_ERRMINUS .         Fast Shear Azimuth            : 
TLFamily_FSA_ERRPLUS .         Fast Shear Azimuth            : 
TLFamily_FSA_NAZ_IN .         Fast Shear Azimuth            : 
TLFamily_FSA_TOH   .         Fast Shear Azimuth            : 
TLFamily_GR_TMG    .         Gamma Ray                     : 
TLFamily_MAXXENE_OVERALL .         Acoustic Energy               : 
TLFamily_MD        .         Measured Depth                : 
TLFamily_MINXENE_OVERALL .         Acoustic Energy               : 
TLFamily_PR_Fast   .         Poisson Ratio (Dynamic)       : 
TLFamily_RB        .         Relative Bearing              : 
TLFamily_SENSOR_AZIM_QCI .         Sensor Azimuth                : 
TLFamily_SLOANI    .         Acoustic Anisotropy           : 
TLFamily_SPHI      .         Total Porosity                : 
TLFamily_TDIF_ALT_OVERALL .         Time Interval                 : 
TLFamily_TDIF_ORG_OVERALL .         Time Interval                 : 
TLFamily_TIMANI    .         Acoustic Anisotropy           : 
TLFamily_TNPH      .         Thermal Neutron Porosity      : 
TLFamily_TW_B_L6   .         Travel Time                   : 
TLFamily_TW_E_L6   .         Travel Time                   : 
TLFamily_VPVS_Fast .         VpVs (Compressional To Shear) Ratio: 
TLFamily_XENEDIF   .         Acoustic Energy               : 
~Curve Information
#_______________________________________________________________________________
#
#LOGNAME           .UNIT     LOG_ID                        : DESCRIPTION
#_______________________________________________________________________________
MD                 .ft                                     : Measured Depth 
AZIM               .deg                                    : Measured Azimuth 
BS_RM              .in                                     : Bit Size 
C1_24              .in                                     : Caliper Section 1, Pads 2-4 
DEVI               .deg                                    : Hole Deviation 
DTCO_MPS_R         .us/ft                                  : Compressional slowness 
DTSH_FAST          .us/ft                                  : Shear slowness 
DTSH_SLOW          .us/ft                                  : Shear slowness 
FSA_ERRMINUS       .deg                                    : Fast shear azimuth error minus(TOH REF90) - swapped 
FSA_ERRPLUS        .deg                                    : Fast shear azimuth error plus(TOH REF90) - swapped 
FSA_NAZ_IN         .deg                                    : Fast Shear Azimuth in Anisotropic Intervals 
FSA_TOH            .deg                                    : Fast shear azimuth(TOH REF90) - overall - swapped 
GR_TMG             .gAPI                                   : Gamma Ray 
MAXXENE_OVERALL    .unitless                               : Maximum cross energy - overall 
MINXENE_OVERALL    .unitless                               : Minimum cross energy - overall 
PR_Fast            .unitless                               : Fast Poisson's Ratio 
RB                 .deg                                    : Relative Bearing 
SENSOR_AZIM_QCI    .deg                                    : Tool azimuth for input QC 
SLOANI             .%                                      : Slowness based anisotropy 
SPHI               .ft3/ft3                                : Total porosity from Sonic 
TDIF_ALT_OVERALL   .s                                      : Arrival time difference between fast and slow waves(alternate) - overall - swapped 
TDIF_ORG_OVERALL   .s                                      : Arrival time difference between fast and slow waves(original) - overall - swapped 
TIMANI             .%                                      : Time based anisotropy 
TNPH               .ft3/ft3                                : Thermal Neutron Porosity (Ratio Method) in Selected Lithology 
TW_B_L6            .us                                     : Time window begin - packed 
TW_E_L6            .us                                     : Time window end - packed 
VPVS_Fast          .unitless                               : Fast VPVS 
XENEDIF            .unitless                               : Energy based anisotropy 
~Ascii
3452.0000  0.0000     8.7500     8.9774     2.8034     -999.2500  -999.2500  -999.2500  -999.2500  -999.2500  -999.2500  -999.2500  80.2895    -999.2500  -999.2500  -999.2500  312.5300   -999.2500  -999.2500  -999.2500  -999.2500  -999.2500  -999.2500  0.1263     998.7773   1998.7773  -999.2500  -999.2500 
3452.5000  0.0000     8.7500     8.9726     2.6300     -999.2500  -999.2500  -999.2500  -999.2500  -999.2500  -999.2500  -999.2500  84.1914    -999.2500  -999.2500  -999.2500  312.5300   -999.2500  -999.2500  -999.2500  -999.2500  -999.2500  -999.2500  0.1341     998.7773   1998.7773  -999.2500  -999.2500 
3453.0000  0.0000     8.7500     8.9669     2.7123     -999.2500  -999.2500  -999.2500  -999.2500  -999.2500  -999.2500  -999.2500  89.4440    -999.2500  -999.2500  -999.2500  311.8700   -999.2500  -999.2500  -999.2500  -999.2500  -999.2500  -999.2500  0.1384     998.7773   1998.7773  -999.2500  -999.2500 
3453.5000  0.0000     8.7500     8.9632     2.7898     -999.2500  -999.2500  -999.2500  -999.2500  -999.2500  -999.2500  -999.2500  88.8437    -999.2500  -999.2500  -999.2500  311.8700   -999.2500  -999.2500  -999.2500  -999.2500  -999.2500  -999.2500  0.1456     998.7773   1998.7773  -999.2500  -999.2500 
3454.0000  0.0000     8.7500     8.9603     2.8729     52.7234    98.3777    99.3549    -999.2500  -999.2500  -999.2500  -999.2500  84.7917    -999.2500  -999.2500  0.2985     311.9600   -999.2500  0.9884     0.0362     -999.2500  -999.2500  -999.2500  0.1558     998.7773   1998.7773  1.8659     -999.2500 
3454.5000  0.0000     8.7500     8.9554     2.7827     53.5003    98.8073    99.6744    -999.2500  -999.2500  -999.2500  -999.2500  70.2346    -999.2500  -999.2500  0.2926     311.9600   -999.2500  0.8737     0.0417     -999.2500  -999.2500  -999.2500  0.1823     998.7773   1998.7773  1.8469     -999.2500 
3455.0000  0.0000     8.7500     8.9530     2.5843     54.2051    99.0404    99.8009    -999.2500  -999.2500  -999.2500  -999.2500  46.8231    -999.2500  -999.2500  0.2862     311.6200   -999.2500  0.7649     0.0467     -999.2500  -999.2500  -999.2500  0.2008     998.7773   1998.7773  1.8271     -999.2500 
3455.5000  0.0000     8.7500     8.9499     2.7900     54.8287    99.1055    99.1055    -999.2500  -999.2500  -999.2500  -999.2500  52.6759    -999.2500  -999.2500  0.2795     311.6200   -999.2500  0.0000     0.0511     -999.2500  -999.2500  -999.2500  0.2190     998.7773   1998.7773  1.8075     -999.2500 
3456.0000  0.0000     8.7500     8.9572     2.7203     55.2530    99.2872    99.7615    -999.2500  -999.2500  -999.2500  -999.2500  44.8721    -999.2500  -999.2500  0.2757     311.4500   -999.2500  0.4765     0.0541     -999.2500  -999.2500  -999.2500  0.2274     998.7773   1998.7773  1.7970     -999.2500 
3456.5000  0.0000     8.7500     8.9589     2.7891     55.3563    99.8240    102.2293   -999.2500  -999.2500  -999.2500  -999.2500  46.2228    -999.2500  -999.2500  0.2780     311.4500   -999.2500  2.3809     0.0549     -999.2500  -999.2500  -999.2500  0.2160     998.7773   1998.7773  1.8033     -999.2500 
3457.0000  0.0000     8.7500     8.9525     2.7527     55.3131    100.7537   102.8241   -999.2500  -999.2500  -999.2500  -999.2500  34.8171    -999.2500  -999.2500  0.2843     311.5600   313.0600   2.0340     0.0545     -999.2500  -999.2500  -999.2500  0.2102     998.7773   1998.7773  1.8215     -999.2500 
3457.5000  0.0000     8.7500     8.9253     2.6229     55.3786    101.9435   103.3991   -999.2500  -999.2500  -999.2500  -999.2500  36.4679    -999.2500  -999.2500  0.2907     311.5600   313.0600   1.4178     0.0550     -999.2500  -999.2500  -999.2500  0.1981     998.7773   1998.7773  1.8408     -999.2500 
3458.0000  0.0000     8.7500     8.9164     2.8874     55.5141    103.0277   104.1476   -999.2500  -999.2500  -999.2500  -999.2500  43.0712    -999.2500  -999.2500  0.2954     311.3800   313.0300   1.0812     0.0560     -999.2500  -999.2500  -999.2500  0.2129     998.7773   1998.7773  1.8559     -999.2500 
3458.5000  0.0000     8.7500     8.9489     2.6363     55.7564    103.6239   104.7018   -999.2500  -999.2500  -999.2500  -999.2500  40.8201    -999.2500  -999.2500  0.2963     311.3800   313.0300   1.0348     0.0577     -999.2500  -999.2500  -999.2500  0.2100     998.7773   1998.7773  1.8585     -999.2500 
3459.0000  0.0000     8.7500     8.9499     2.6300     55.9753    103.7095   104.9586   -999.2500  -999.2500  -999.2500  -999.2500  41.0202    -999.2500  -999.2500  0.2945     310.9300   312.5300   1.1972     0.0592     -999.2500  -999.2500  -999.2500  0.2106     998.7773   1998.7773  1.8528     -999.2500 
3459.5000  0.0000     8.7500     8.9492     2.7060     55.9569    103.5876   105.1197   -999.2500  -999.2500  -999.2500  -999.2500  50.1247    -999.2500  -999.2500  0.2940     310.9300   312.5300   1.4682     0.0591     -999.2500  -999.2500  -999.2500  0.1970     999.5178   1999.5178  1.8512     -999.2500 
3460.0000  0.0000     8.7500     8.9487     2.8826     55.7003    103.4751   105.2933   93.2692    123.4728   -999.2500  108.3710   44.8721    0.0932     0.0626     0.2960     310.9000   311.8700   1.7418     0.0573     0.0000     -0.0003    -32.0686   0.1930     998.8887   1998.8887  1.8577     3.0584    
3460.5000  0.0000     8.7500     8.9475     2.7827     55.3477    103.3339   105.2683   90.3847    119.5483   -999.2500  104.9665   46.5229    0.0980     0.0622     0.2988     310.9000   311.8700   1.8547     0.0548     0.0000     -0.0003    -31.8197   0.1962     997.8701   1997.8701  1.8670     3.5786    
3461.0000  0.0000     8.7500     8.9539     2.7123     54.9156    103.0549   104.7942   87.2164    116.2189   -999.2500  101.7176   43.9716    0.1042     0.0629     0.3017     311.1900   311.9600   1.6737     0.0517     0.0000     -0.0003    -31.6317   0.2010     995.6289   1995.6289  1.8766     4.1239    
3461.5000  0.0000     8.7500     8.9562     2.6300     54.2934    102.6593   103.8320   84.7686    113.0044   -999.2500  98.8865    41.5705    0.1108     0.0633     0.3058     311.1900   311.9600   1.1359     0.0473     0.0000     -0.0003    -31.3712   0.1943     993.8665   1993.8665  1.8908     4.7449    
3462.0000  0.0000     8.7500     8.9571     2.6300     53.4961    102.2065   102.5165   83.0739    109.5681   -999.2500  96.3210    36.1678    0.1170     0.0618     0.3113     311.1300   311.6200   0.3029     0.0417     0.0000     -0.0003    -31.0044   0.1912     993.5919   1993.5919  1.9105     5.5235    
3462.5000  0.0000     8.7500     8.9570     2.6237     52.6382    101.1737   101.5286   82.1772    105.7930   -999.2500  93.9851    56.0275    0.1244     0.0581     0.3144     311.1300   311.6200   0.3502     0.0356     0.0000     -0.0003    -30.5539   0.2047     992.8536   1992.8535  1.9221     6.6261    
3463.0000  0.0000     8.7500     8.9609     2.8729     51.9487    100.2151   100.3657   82.5638    102.5336   -999.2500  92.5487    52.2257    0.1324     0.0524     0.3163     311.6600   311.4500   0.1503     0.0308     0.0000     -0.0003    -30.0863   0.2111     992.7601   1992.7600  1.9291     8.0002    
3463.5000  0.0000     8.7500     8.9639     2.7827     51.6170    98.8345    99.6871    83.7794    100.2650   -999.2500  92.0222    40.5199    0.1393     0.0465     0.3125     311.6600   311.4500   0.8590     0.0284     0.0000     -0.0003    -29.7447   0.2098     992.3458   1992.3457  1.9148     9.2871    
3464.0000  0.0000     8.7500     8.9654     2.7194     51.9482    97.1193    99.0232    84.9807    97.7643    -999.2500  91.3725    44.7220    0.1458     0.0403     0.2996     312.0200   311.5600   1.9413     0.0308     0.0000     -0.0003    -29.5831   0.1991     988.2129   1988.2129  1.8695     10.5476   
3464.5000  0.0000     8.7500     8.9659     2.7827     52.5418    96.6255    98.4112    84.1352    97.2531    -999.2500  90.6942    42.1708    0.1454     0.0388     0.2901     312.0200   311.4400   1.8312     0.0349     0.0000     -0.0003    -29.6490   0.1987     983.2029   1983.2028  1.8390     10.6613   
