~Version
 VERS              .         2.0                           : CWLS LOG ASCII STANDARD - VERSION 2.0
 WRAP              .         NO                            : ONE LINE PER DEPTH STEP
 DLM               .         SPACE                         : DELIMITING CHARACTER(SPACE TAB OR COMMA)
~Well Information
#_______________________________________________________________________________
#
#PARAMETER_NAME    .UNIT     VALUE                         : DESCRIPTION
#_______________________________________________________________________________
STRT               .ft       3452.0000                     : First reference value
STOP               .ft       9050.0000                     : Last reference value
STEP               .ft       0.5000                        : Step increment
NULL               .         -999.25                       : Missing value
COMP               .         University of Utah            : Company
WELL               .         FORGE 56-32 Monitor Well      : Well name
FLD                .         Wildcat                       : Field
LOC                .                                       : Location
CNTY               .                                       : County
STAT               .         Utah                          : State
CTRY               .         USA                           : Country
SRVC               .         Schlumberger                  : Service Company
DATE               .         27-Feb-2021                   : Date
API                .                                       : API number
APD                .ft       30.4                          : Elevation of Depth Reference (LMF) Above Permanent Datum
BHS                .         OPEN                          : Borehole Status (Open or Cased Hole)
BHT                .degF     306                           : Bottom Hole Temperature
BLI                .ft       9105                          : Bottom Log Interval
BS                 .in       8.75                          : Bit Size
CBDR               .ft       3100                          : Casing Bottom of Driller
CBLO               .ft       3100                          : Logger Casing Shoe Depth
CSIZ               .in       9.625                         : Current Casing Size
CWEI               .lbm/ft   36                            : Casing Weight
DCS                .         27-Feb-2021                   : Date Circulation Stopped
DFD                .lbm/gal  9                             : Drilling Fluid Density
DFT                .         WBM                           : Drilling Fluid Type
DLAB               .         27-Feb-2021                   : Date Logger At Bottom
EDF                .ft       5451.72                       : Elevation of Drill Floor
EGL                .ft       5451.72                       : Elevation of Ground Level
EKB                .ft       5482.12                       : Elevation of Kelly Bushing
EPD                .ft       5451.72                       : Elevation of Permanent Datum (PDAT) above Mean Sea Level
LMF                .         KB                            : Logging Measured From (Name of Logging Elevation Reference)
LUL                .         Fort Morgan, CO               : Logging Unit Location
LUN                .         2801                          : Logging Unit Number
LATI               .         38° 30' 14.512" N             : Latitude
LONG               .         112° 53' 11.354" W            : Longitude
MCST               .degF     68                            : Mudcake Sample Temperature
MFST               .degF     68                            : Mud Filtrate Sample Temperature
MRT                .degF     -999.25                       : Maximum Recorded Temperature
MST                .degF     68                            : Mud Sample Temperature
PDAT               .         GL                            : Permanent Datum
PRODUCER-CODE      .         440                           : 
PRODUCER-NAME      .         Schlumberger                  : 
RMB                .ohm.m    0.04781149                    : Resistivity of Mud at Bottom Hole Temperature
RMCS               .ohm.m    -999.25                       : Resistivity of Mud Cake Sample
RMFS               .ohm.m    0.15                          : Resistivity of Mud Filtrate Sample
RMS                .ohm.m    0.2                           : Resistivity of Mud Sample
RUN                .         ONE                           : Run Number
TCS                .         16_45_00                      : Time Circulation Stopped
TDD                .ft       9145                          : Driller Total Depth
TDL                .ft       9145                          : Logger Total Depth
TLAB               .         17_00_00                      : Time Logger At Bottom
TLI                .ft       3500                          : Top Log Interval
~Parameter Information Block
#_______________________________________________________________________________
#
#PARAMETER_NAME    .UNIT     VALUE                         : DESCRIPTION
#_______________________________________________________________________________
SET                .         1PnS-Aniso_DM_las             : 
TLFamily_AZIM      .         Hole Azimuth                  : 
TLFamily_BS_RM     .         Bit Size                      : 
TLFamily_C1_24     .         Caliper                       : 
TLFamily_DEVI      .         Hole Deviation                : 
TLFamily_DTCO_MPS_R .         Compressional Slowness        : 
TLFamily_DTSH_FAST .         Fast Shear Slowness           : 
TLFamily_DTSH_SLOW .         Slow Shear Slowness           : 
TLFamily_FSA_ERRMINUS .         Fast Shear Azimuth            : 
TLFamily_FSA_ERRPLUS .         Fast Shear Azimuth            : 
TLFamily_FSA_NAZ_IN .         Fast Shear Azimuth            : 
TLFamily_FSA_TOH   .         Fast Shear Azimuth            : 
TLFamily_GR_TMG    .         Gamma Ray                     : 
TLFamily_MAXXENE_OVERALL .         Acoustic Energy               : 
TLFamily_MD        .         Measured Depth                : 
TLFamily_MINXENE_OVERALL .         Acoustic Energy               : 
TLFamily_PR_Fast   .         Poisson Ratio (Dynamic)       : 
TLFamily_RB        .         Relative Bearing              : 
TLFamily_SENSOR_AZIM_QCI .         Sensor Azimuth                : 
TLFamily_SLOANI    .         Acoustic Anisotropy           : 
TLFamily_SPHI      .         Total Porosity                : 
TLFamily_TDIF_ALT_OVERALL .         Time Interval                 : 
TLFamily_TDIF_ORG_OVERALL .         Time Interval                 : 
TLFamily_TIMANI    .         Acoustic Anisotropy           : 
TLFamily_TNPH      .         Thermal Neutron Porosity      : 
TLFamily_TW_B_L6   .         Travel Time                   : 
TLFamily_TW_E_L6   .         Travel Time                   : 
TLFamily_VPVS_Fast .         VpVs (Compressional To Shear) Ratio: 
TLFamily_XENEDIF   .         Acoustic Energy               : 
~Curve Information
#_______________________________________________________________________________
#
#LOGNAME           .UNIT     LOG_ID                        : DESCRIPTION
#_______________________________________________________________________________
MD                 .ft                                     : Measured Depth 
AZIM               .deg                                    : Measured Azimuth 
BS_RM              .in                                     : Bit Size 
C1_24              .in                                     : Caliper Section 1, Pads 2-4 
DEVI               .deg                                    : Hole Deviation 
DTCO_MPS_R         .us/ft                                  : Compressional slowness 
DTSH_FAST          .us/ft                                  : Shear slowness 
DTSH_SLOW          .us/ft                                  : Shear slowness 
FSA_ERRMINUS       .deg                                    : Fast shear azimuth error minus(TOH REF90) - swapped 
FSA_ERRPLUS        .deg                                    : Fast shear azimuth error plus(TOH REF90) - swapped 
FSA_NAZ_IN         .deg                                    : Fast Shear Azimuth in Anisotropic Intervals 
FSA_TOH            .deg                                    : Fast shear azimuth(TOH REF90) - overall - swapped 
GR_TMG             .gAPI                                   : Gamma Ray 
MAXXENE_OVERALL    .unitless                               : Maximum cross energy - overall 
MINXENE_OVERALL    .unitless                               : Minimum cross energy - overall 
PR_Fast            .unitless                               : Fast Poisson's Ratio 
RB                 .deg                                    : Relative Bearing 
SENSOR_AZIM_QCI    .deg                                    : Tool azimuth for input QC 
SLOANI             .%                                      : Slowness based anisotropy 
SPHI               .ft3/ft3                                : Total porosity from Sonic 
TDIF_ALT_OVERALL   .s                                      : Arrival time difference between fast and slow waves(alternate) - overall - swapped 
TDIF_ORG_OVERALL   .s                                      : Arrival time difference between fast and slow waves(original) - overall - swapped 
TIMANI             .%                                      : Time based anisotropy 
TNPH               .ft3/ft3                                : Thermal Neutron Porosity (Ratio Method) in Selected Lithology 
TW_B_L6            .us                                     : Time window begin - packed 
TW_E_L6            .us                                     : Time window end - packed 
VPVS_Fast          .unitless                               : Fast VPVS 
XENEDIF            .unitless                               : Energy based anisotropy 
~Ascii
# ...
6065.0000  0.0000     8.7500     8.8490     1.7300     53.3626    93.3213    95.7672    10.1665    19.4048    -999.2500  14.7857    272.3841   0.0727     0.0197     0.2571     281.0700   281.4450   2.5870     0.0408     -0.0003    0.0000     1.1233     0.0049     933.1746   1933.1746  1.7488     5.2983    
6065.5000  0.0000     8.7500     8.7902     1.5755     53.2980    93.1055    95.3763    8.7190     19.0661    -999.2500  13.8925    287.6917   0.0701     0.0202     0.2563     281.0700   281.2775   2.4095     0.0403     -0.0003    0.0000     1.0237     0.0051     933.4854   1933.4854  1.7469     4.9881    
6066.0000  0.0000     8.7500     8.7462     1.5384     53.2904    92.7930    94.6498    7.5324     18.5832    -999.2500  13.0578    295.7954   0.0670     0.0205     0.2539     281.0400   281.1325   1.9812     0.0402     -0.0003    0.0000     0.9001     0.0052     933.8551   1933.8552  1.7413     4.6577    
6066.5000  0.0000     8.7500     8.7461     1.9009     53.3284    92.4311    93.7265    6.8668     18.1323    -999.2500  12.4995    262.0289   0.0649     0.0206     0.2505     281.0400   281.0625   1.3918     0.0405     -0.0003    0.0000     0.7870     0.0034     934.3616   1934.3616  1.7332     4.4282    
6067.0000  0.0000     8.7500     8.7609     1.5433     53.3795    92.1944    93.0623    6.7272     18.0604    -999.2500  12.3938    273.1345   0.0646     0.0210     0.2479     281.2300   281.0675   0.9370     0.0409     -0.0003    0.0000     0.7055     0.0033     934.8374   1934.8375  1.7272     4.3600    
6067.5000  0.0000     8.7500     8.8379     1.3765     53.3909    92.2035    93.0099    6.8425     18.2347    -999.2500  12.5386    273.1343   0.0651     0.0214     0.2478     281.2300   281.0875   0.8708     0.0410     -0.0003    0.0000     0.6442     0.0029     935.2883   1935.2883  1.7270     4.3742    
6068.0000  0.0000     8.7500     8.8603     1.6552     53.3452    92.2588    93.4936    7.0152     18.4045    -999.2500  12.7098    263.9798   0.0661     0.0218     0.2489     281.8000   281.1225   1.3295     0.0406     -0.0003    0.0000     0.5892     0.0031     935.6794   1935.6794  1.7295     4.4280    
6068.5000  0.0000     8.7500     8.7859     1.8215     53.3108    92.1864    94.0277    7.1573     18.5026    -999.2500  12.8300    260.0781   0.0670     0.0221     0.2488     281.8000   281.1400   1.9776     0.0404     -0.0003    0.0000     0.5425     0.0020     935.9160   1935.9160  1.7292     4.4860    
6069.0000  0.0000     8.7500     8.7771     1.8521     53.3353    91.8783    94.6528    7.2986     18.4765    -999.2500  12.8875    267.8817   0.0680     0.0223     0.2459     282.2400   281.1400   2.9748     0.0406     -0.0003    0.0000     0.4972     0.0005     936.1115   1936.1115  1.7227     4.5702    
6069.5000  0.0000     8.7500     8.7338     2.0051     53.4036    91.6162    95.5576    7.7008     18.7716    13.2362    13.2362    251.5237   0.0712     0.0225     0.2427     282.2400   281.1398   4.2115     0.0410     -0.0003    0.0000     0.4658     -0.0009    936.5461   1936.5461  1.7155     4.8622    
6070.0000  0.0000     8.7500     8.7336     1.6868     53.4865    91.9238    96.4539    8.3794     19.4218    13.9006    13.9006    255.5759   0.0763     0.0228     0.2441     282.8600   281.0898   4.8096     0.0416     -0.0003    0.0000     0.4605     -0.0022    936.7898   1936.7898  1.7186     5.3464    
6070.5000  0.0000     8.7500     8.7643     2.2027     53.5717    92.6677    97.1110    9.4719     20.0100    14.7409    14.7409    255.2756   0.0825     0.0230     0.2490     282.8600   281.0400   4.6827     0.0422     -0.0003    0.0000     0.4819     -0.0023    936.6196   1936.6196  1.7298     5.9552    
6071.0000  0.0000     8.7500     8.8134     2.0200     53.6570    93.6519    97.3620    11.2122    20.2473    15.7297    15.7297    253.9248   0.0910     0.0226     0.2557     283.5800   281.0550   3.8846     0.0428     -0.0003    0.0000     0.5813     -0.0017    936.5906   1936.5906  1.7454     6.8368    
6071.5000  0.0000     8.7500     8.7585     1.7488     53.7423    94.7122    97.3957    12.5758    19.9745    16.2752    16.2752    245.9711   0.0997     0.0223     0.2626     283.5800   281.0625   2.7937     0.0434     -0.0003    0.0000     0.7500     -0.0014    936.5225   1936.5225  1.7623     7.7386    
6072.0000  0.0000     8.7500     8.6996     1.8370     53.8276    95.7713    97.5312    13.1140    19.6017    -999.2500  16.3579    237.4169   0.1063     0.0223     0.2691     284.2500   281.0475   1.8209     0.0440     -0.0003    0.0000     0.9052     -0.0019    936.4613   1936.4614  1.7792     8.4023    
6072.5000  0.0000     8.7500     8.7242     1.9149     53.9124    96.6959    97.7264    13.3972    19.3795    -999.2500  16.3884    240.8684   0.1112     0.0223     0.2745     284.2500   281.0875   1.0600     0.0446     -0.0003    0.0000     1.0084     -0.0019    936.5225   1936.5225  1.7936     8.8986    
6073.0000  0.0000     8.7500     8.7757     1.7255     53.9895    97.0620    97.7112    13.5547    19.2639    -999.2500  16.4093    265.9309   0.1151     0.0221     0.2760     285.1100   281.1825   0.6665     0.0452     -0.0003    0.0000     1.0854     -0.0016    936.4398   1936.4398  1.7978     9.3012    
6073.5000  0.0000     8.7500     8.7246     1.6028     54.0258    96.6420    97.2548    13.6941    19.1958    -999.2500  16.4450    262.1790   0.1197     0.0218     0.2727     285.1100   281.5139   0.6321     0.0454     -0.0003    0.0000     1.1890     -0.0010    936.5577   1936.5576  1.7888     9.7827    
6074.0000  0.0000     8.7500     8.6923     1.5871     53.9379    96.2583    97.0829    13.7432    19.1848    -999.2500  16.4640    290.0927   0.1215     0.0220     0.2712     285.9200   281.8000   0.8530     0.0448     -0.0003    0.0000     1.2516     -0.0004    936.4536   1936.4536  1.7846     9.9512    
6074.5000  0.0000     8.7500     8.7042     1.6833     53.8754    96.0989    97.1949    13.5310    19.3113    -999.2500  16.4212    287.2413   0.1210     0.0224     0.2708     285.9200   282.0208   1.1341     0.0444     -0.0003    0.0000     1.2898     0.0011     936.6748   1936.6748  1.7837     9.8588    
6075.0000  0.0000     8.7500     8.7045     1.7095     53.8378    95.8165    97.3754    12.9911    19.5102    -999.2500  16.2506    283.6396   0.1161     0.0231     0.2693     286.6200   282.3950   1.6138     0.0441     -0.0003    0.0000     1.2833     0.0024     936.6835   1936.6835  1.7797     9.2987    
6075.5000  0.0000     8.7500     8.7042     1.7001     53.8075    95.2879    97.3221    12.7618    19.5447    -999.2500  16.1533    283.4894   0.1121     0.0232     0.2659     286.6200   282.7050   2.1122     0.0439     -0.0003    0.0000     1.2449     0.0031     936.6144   1936.6143  1.7709     8.8941    
6076.0000  0.0000     8.7500     8.6825     1.8604     53.7708    94.5941    97.1902    12.6046    19.5947    -999.2500  16.0996    236.2162   0.1081     0.0229     0.2613     287.1500   283.0400   2.7073     0.0436     -0.0003    0.0000     1.1900     0.0025     936.6821   1936.6821  1.7592     8.5199    
6076.5000  0.0000     8.7500     8.6610     1.6625     53.7221    94.1647    97.1055    12.4468    19.7111    -999.2500  16.0789    236.2163   0.1041     0.0227     0.2587     287.1500   283.4000   3.0750     0.0433     -0.0003    0.0000     1.1258     0.0027     936.5967   1936.5967  1.7528     8.1362    
6077.0000  0.0000     8.7500     8.6925     1.7308     53.6575    94.2688    97.1108    12.2230    19.8134    -999.2500  16.0182    215.3559   0.1001     0.0228     0.2604     287.7100   283.7475   2.9700     0.0428     -0.0003    0.0000     1.0708     0.0041     936.4777   1936.4777  1.7569     7.7303    
6077.5000  0.0000     8.7500     8.6931     1.6939     53.6179    94.6909    97.1352    11.9262    19.8017    -999.2500  15.8640    216.1063   0.0966     0.0230     0.2640     287.7100   284.0825   2.5485     0.0426     -0.0003    0.0000     1.0404     0.0053     936.5850   1936.5850  1.7660     7.3604    
