~Version
 VERS              .         2.0                           : CWLS LOG ASCII STANDARD - VERSION 2.0
 WRAP              .         NO                            : ONE LINE PER DEPTH STEP
 DLM               .         SPACE                         : DELIMITING CHARACTER(SPACE TAB OR COMMA)
~Well Information
#_______________________________________________________________________________
#
#PARAMETER_NAME    .UNIT     VALUE                         : DESCRIPTION
#_______________________________________________________________________________
STRT               .ft       3452.0000                     : First reference value
STOP               .ft       9050.0000                     : Last reference value
STEP               .ft       0.5000                        : Step increment
NULL               .         -999.25                       : Missing value
COMP               .         University of Utah            : Company
WELL               .         FORGE 56-32 Monitor Well      : Well name
FLD                .         Wildcat                       : Field
LOC                .                                       : Location
CNTY               .                                       : County
STAT               .         Utah                          : State
CTRY               .         USA                           : Country
SRVC               .         Schlumberger                  : Service Company
DATE               .         27-Feb-2021                   : Date
API                .                                       : API number
APD                .ft       30.4                          : Elevation of Depth Reference (LMF) Above Permanent Datum
BHS                .         OPEN                          : Borehole Status (Open or Cased Hole)
BHT                .degF     306                           : Bottom Hole Temperature
BLI                .ft       9105                          : Bottom Log Interval
BS                 .in       8.75                          : Bit Size
CBDR               .ft       3100                          : Casing Bottom of Driller
CBLO               .ft       3100                          : Logger Casing Shoe Depth
CSIZ               .in       9.625                         : Current Casing Size
CWEI               .lbm/ft   36                            : Casing Weight
DCS                .         27-Feb-2021                   : Date Circulation Stopped
DFD                .lbm/gal  9                             : Drilling Fluid Density
DFT                .         WBM                           : Drilling Fluid Type
DLAB               .         27-Feb-2021                   : Date Logger At Bottom
EDF                .ft       5451.72                       : Elevation of Drill Floor
EGL                .ft       5451.72                       : Elevation of Ground Level
EKB                .ft       5482.12                       : Elevation of Kelly Bushing
EPD                .ft       5451.72                       : Elevation of Permanent Datum (PDAT) above Mean Sea Level
LMF                .         KB                            : Logging Measured From (Name of Logging Elevation Reference)
LUL                .         Fort Morgan, CO               : Logging Unit Location
LUN                .         2801                          : Logging Unit Number
LATI               .         38° 30' 14.512" N             : Latitude
LONG               .         112° 53' 11.354" W            : Longitude
MCST               .degF     68                            : Mudcake Sample Temperature
MFST               .degF     68                            : Mud Filtrate Sample Temperature
MRT                .degF     -999.25                       : Maximum Recorded Temperature
MST                .degF     68                            : Mud Sample Temperature
PDAT               .         GL                            : Permanent Datum
PRODUCER-CODE      .         440                           : 
PRODUCER-NAME      .         Schlumberger                  : 
RMB                .ohm.m    0.04781149                    : Resistivity of Mud at Bottom Hole Temperature
RMCS               .ohm.m    -999.25                       : Resistivity of Mud Cake Sample
RMFS               .ohm.m    0.15                          : Resistivity of Mud Filtrate Sample
RMS                .ohm.m    0.2                           : Resistivity of Mud Sample
RUN                .         ONE                           : Run Number
TCS                .         16_45_00                      : Time Circulation Stopped
TDD                .ft       9145                          : Driller Total Depth
TDL                .ft       9145                          : Logger Total Depth
TLAB               .         17_00_00                      : Time Logger At Bottom
TLI                .ft       3500                          : Top Log Interval
~Parameter Information Block
#_______________________________________________________________________________
#
#PARAMETER_NAME    .UNIT     VALUE                         : DESCRIPTION
#_______________________________________________________________________________
SET                .         1PnS-Aniso_DM_las             : 
TLFamily_AZIM      .         Hole Azimuth                  : 
TLFamily_BS_RM     .         Bit Size                      : 
TLFamily_C1_24     .         Caliper                       : 
TLFamily_DEVI      .         Hole Deviation                : 
TLFamily_DTCO_MPS_R .         Compressional Slowness        : 
TLFamily_DTSH_FAST .         Fast Shear Slowness           : 
TLFamily_DTSH_SLOW .         Slow Shear Slowness           : 
TLFamily_FSA_ERRMINUS .         Fast Shear Azimuth            : 
TLFamily_FSA_ERRPLUS .         Fast Shear Azimuth            : 
TLFamily_FSA_NAZ_IN .         Fast Shear Azimuth            : 
TLFamily_FSA_TOH   .         Fast Shear Azimuth            : 
TLFamily_GR_TMG    .         Gamma Ray                     : 
TLFamily_MAXXENE_OVERALL .         Acoustic Energy               : 
TLFamily_MD        .         Measured Depth                : 
TLFamily_MINXENE_OVERALL .         Acoustic Energy               : 
TLFamily_PR_Fast   .         Poisson Ratio (Dynamic)       : 
TLFamily_RB        .         Relative Bearing              : 
TLFamily_SENSOR_AZIM_QCI .         Sensor Azimuth                : 
TLFamily_SLOANI    .         Acoustic Anisotropy           : 
TLFamily_SPHI      .         Total Porosity                : 
TLFamily_TDIF_ALT_OVERALL .         Time Interval                 : 
TLFamily_TDIF_ORG_OVERALL .         Time Interval                 : 
TLFamily_TIMANI    .         Acoustic Anisotropy           : 
TLFamily_TNPH      .         Thermal Neutron Porosity      : 
TLFamily_TW_B_L6   .         Travel Time                   : 
TLFamily_TW_E_L6   .         Travel Time                   : 
TLFamily_VPVS_Fast .         VpVs (Compressional To Shear) Ratio: 
TLFamily_XENEDIF   .         Acoustic Energy               : 
~Curve Information
#_______________________________________________________________________________
#
#LOGNAME           .UNIT     LOG_ID                        : DESCRIPTION
#_______________________________________________________________________________
MD                 .ft                                     : Measured Depth 
AZIM               .deg                                    : Measured Azimuth 
BS_RM              .in                                     : Bit Size 
C1_24              .in                                     : Caliper Section 1, Pads 2-4 
DEVI               .deg                                    : Hole Deviation 
DTCO_MPS_R         .us/ft                                  : Compressional slowness 
DTSH_FAST          .us/ft                                  : Shear slowness 
DTSH_SLOW          .us/ft                                  : Shear slowness 
FSA_ERRMINUS       .deg                                    : Fast shear azimuth error minus(TOH REF90) - swapped 
FSA_ERRPLUS        .deg                                    : Fast shear azimuth error plus(TOH REF90) - swapped 
FSA_NAZ_IN         .deg                                    : Fast Shear Azimuth in Anisotropic Intervals 
FSA_TOH            .deg                                    : Fast shear azimuth(TOH REF90) - overall - swapped 
GR_TMG             .gAPI                                   : Gamma Ray 
MAXXENE_OVERALL    .unitless                               : Maximum cross energy - overall 
MINXENE_OVERALL    .unitless                               : Minimum cross energy - overall 
PR_Fast            .unitless                               : Fast Poisson's Ratio 
RB                 .deg                                    : Relative Bearing 
SENSOR_AZIM_QCI    .deg                                    : Tool azimuth for input QC 
SLOANI             .%                                      : Slowness based anisotropy 
SPHI               .ft3/ft3                                : Total porosity from Sonic 
TDIF_ALT_OVERALL   .s                                      : Arrival time difference between fast and slow waves(alternate) - overall - swapped 
TDIF_ORG_OVERALL   .s                                      : Arrival time difference between fast and slow waves(original) - overall - swapped 
TIMANI             .%                                      : Time based anisotropy 
TNPH               .ft3/ft3                                : Thermal Neutron Porosity (Ratio Method) in Selected Lithology 
TW_B_L6            .us                                     : Time window begin - packed 
TW_E_L6            .us                                     : Time window end - packed 
VPVS_Fast          .unitless                               : Fast VPVS 
XENEDIF            .unitless                               : Energy based anisotropy 
~Ascii
# ...
5311.0000  0.0000     8.7500     8.8010     2.2281     52.5628    93.5757    94.9083    13.6097    30.4379    -999.2500  22.0238    58.8290    0.0615     0.0249     0.2695     302.4900   302.5150   1.4140     0.0351     -0.0003    0.0000     0.7472     0.1059     947.8123   1947.8124  1.7803     3.6632    
5311.5000  0.0000     8.7500     8.8300     2.3470     52.5408    93.4680    94.7553    13.3911    29.6291    -999.2500  21.5101    54.3268    0.0584     0.0241     0.2690     302.4900   302.5775   1.3679     0.0349     -0.0003    0.0000     0.6768     0.0975     947.3338   1947.3339  1.7790     3.4339    
5312.0000  0.0000     8.7500     8.8736     2.1249     52.6885    93.8028    95.0637    13.0760    29.4516    -999.2500  21.2638    59.2791    0.0556     0.0235     0.2695     302.5400   302.6525   1.3352     0.0360     -0.0003    0.0000     0.6375     0.0907     946.5535   1946.5535  1.7803     3.2128    
5312.5000  0.0000     8.7500     8.8763     2.2605     52.6968    94.3060    95.3557    12.6272    29.7256    -999.2500  21.1764    55.6774    0.0527     0.0232     0.2730     302.5400   302.6650   1.1069     0.0360     -0.0003    0.0000     0.6008     0.0851     945.6062   1945.6062  1.7896     2.9489    
5313.0000  0.0000     8.7500     8.8461     2.1418     52.4719    94.7431    95.4608    12.3537    29.9875    -999.2500  21.1706    67.2331    0.0503     0.0231     0.2788     302.6900   302.6150   0.7547     0.0345     -0.0003    0.0000     0.5694     0.0790     944.7920   1944.7920  1.8056     2.7247    
5313.5000  0.0000     8.7500     8.8698     2.2168     52.2284    94.9194    95.3884    12.3399    30.1956    -999.2500  21.2678    68.1335    0.0489     0.0231     0.2829     302.6900   302.4950   0.4929     0.0327     -0.0003    0.0000     0.5305     0.0791     943.6226   1943.6226  1.8174     2.5797    
5314.0000  0.0000     8.7500     8.8712     2.1555     52.1182    94.8101    95.2137    12.7837    30.4405    -999.2500  21.6121    61.1991    0.0481     0.0228     0.2835     302.5900   302.3050   0.4248     0.0320     -0.0003    0.0000     0.4724     0.0779     942.1285   1942.1284  1.8191     2.5285    
5314.5000  0.0000     8.7500     8.7975     2.3299     52.2139    94.5061    94.9607    13.5726    30.6112    -999.2500  22.0919    83.1254    0.0481     0.0223     0.2803     302.5900   302.1550   0.4799     0.0326     -0.0003    0.0000     0.4100     0.0795     940.8284   1940.8285  1.8100     2.5811    
5315.0000  0.0000     8.7500     8.7810     2.2821     52.4348    94.1736    94.6927    14.0440    30.5819    -999.2500  22.3129    81.3400    0.0485     0.0217     0.2753     302.2100   302.0450   0.5496     0.0342     -0.0003    0.0000     0.3734     0.0754     939.5273   1939.5275  1.7960     2.6755    
5315.5000  0.0000     8.7500     8.8130     2.3909     52.6759    93.9807    94.5403    13.9021    30.1132    -999.2500  22.0076    70.5347    0.0487     0.0212     0.2710     302.2100   302.0900   0.5937     0.0359     -0.0003    0.0000     0.3764     0.0744     938.1243   1938.1243  1.7841     2.7450    
5316.0000  0.0000     8.7500     8.8455     2.3543     52.8534    93.9190    94.4950    13.3579    28.8897    -999.2500  21.1238    63.7814    0.0493     0.0208     0.2683     301.9900   302.2900   0.6115     0.0372     -0.0003    0.0000     0.4256     0.0734     937.3036   1937.3037  1.7770     2.8442    
5316.5000  0.0000     8.7500     8.8232     2.1172     52.9254    93.8166    94.3867    12.8147    27.3961    -999.2500  20.1054    55.5273    0.0511     0.0207     0.2666     301.9900   302.4550   0.6059     0.0377     -0.0003    0.0000     0.5021     0.0769     936.8188   1936.8188  1.7726     3.0325    
5317.0000  0.0000     8.7500     8.8404     2.1527     52.9165    93.6552    94.2152    12.5040    26.5245    -999.2500  19.5143    63.0310    0.0531     0.0210     0.2655     302.3900   302.5850   0.5962     0.0376     -0.0003    0.0000     0.5573     0.0759     936.0239   1936.0239  1.7699     3.2106    
5317.5000  0.0000     8.7500     8.8613     2.1527     52.8352    93.4345    94.0428    12.4013    25.9919    -999.2500  19.1966    71.8853    0.0559     0.0214     0.2650     302.3900   302.6500   0.6490     0.0370     -0.0003    0.0000     0.5983     0.0796     934.7362   1934.7362  1.7684     3.4429    
5318.0000  0.0000     8.7500     8.8230     2.2605     52.7339    93.2274    94.0350    12.7374    25.2577    -999.2500  18.9975    77.8884    0.0600     0.0216     0.2648     302.6500   302.6452   0.8625     0.0363     -0.0003    0.0000     0.6337     0.0800     933.1445   1933.1445  1.7679     3.8403    
5318.5000  0.0000     8.7500     8.8171     2.4295     52.6450    93.1445    94.2075    13.2724    24.7952    -999.2500  19.0338    68.7338    0.0633     0.0215     0.2653     302.6500   302.6402   1.1347     0.0357     -0.0003    0.0000     0.6451     0.0888     932.2205   1932.2206  1.7693     4.1810    
5319.0000  0.0000     8.7500     8.8692     2.1467     52.5684    93.0532    94.3885    13.6974    24.6046    -999.2500  19.1510    62.4307    0.0659     0.0215     0.2656     302.6400   302.6550   1.4248     0.0351     -0.0003    0.0000     0.6454     0.0890     931.7235   1931.7236  1.7701     4.4439    
5319.5000  0.0000     8.7500     8.9271     2.3161     52.5257    92.8789    94.4406    13.8616    24.3411    -999.2500  19.1014    63.0310    0.0679     0.0215     0.2649     302.6400   302.6850   1.6674     0.0348     -0.0003    0.0000     0.6443     0.0855     931.0312   1931.0313  1.7683     4.6352    
5320.0000  0.0000     8.7500     8.9131     2.3316     52.4791    92.6871    94.2521    13.4563    24.1210    -999.2500  18.7886    64.2316    0.0682     0.0219     0.2641     302.7000   302.6925   1.6744     0.0345     -0.0003    0.0000     0.6473     0.0766     930.3743   1930.3743  1.7662     4.6344    
5320.5000  0.0000     8.7500     8.8663     2.3002     52.3354    92.5316    93.9339    12.7613    23.9062    -999.2500  18.3338    55.9775    0.0676     0.0223     0.2648     302.7000   302.6775   1.5041     0.0335     -0.0003    0.0000     0.6519     0.0646     929.5181   1929.5181  1.7680     4.5276    
5321.0000  0.0000     8.7500     8.8330     2.2096     52.1312    92.3788    93.6110    12.1358    23.6454    -999.2500  17.8906    73.0860    0.0670     0.0228     0.2664     302.6700   302.6050   1.3250     0.0320     -0.0003    0.0000     0.6443     0.0524     927.9713   1927.9714  1.7720     4.4199    
5321.5000  0.0000     8.7500     8.8209     2.1889     51.8794    92.2148    93.3996    11.7377    23.4763    -999.2500  17.6070    140.3491   0.0668     0.0235     0.2685     302.6700   302.4750   1.2767     0.0303     -0.0003    0.0000     0.6102     0.0389     925.9568   1925.9568  1.7775     4.3304    
5322.0000  0.0000     8.7500     8.7741     2.1765     51.4832    92.1333    93.4206    11.4823    23.4336    -999.2500  17.4580    211.3039   0.0660     0.0241     0.2730     302.4100   302.3700   1.3875     0.0275     -0.0003    0.0000     0.5450     0.0309     924.1101   1924.1101  1.7896     4.1847    
5322.5000  0.0000     8.7500     8.7572     2.3069     51.0383    92.2026    93.7314    11.2999    23.6594    -999.2500  17.4796    274.1850   0.0641     0.0245     0.2791     302.4100   302.2900   1.6445     0.0243     -0.0003    0.0000     0.4624     0.0268     922.3010   1922.3010  1.8065     3.9543    
5323.0000  0.0000     8.7500     8.7534     2.0673     50.7054    92.2622    94.2497    11.3357    24.4218    -999.2500  17.8787    262.6293   0.0616     0.0248     0.2836     302.2500   302.2975   2.1312     0.0220     -0.0003    0.0000     0.3870     0.0236     920.0784   1920.0784  1.8196     3.6814    
5323.5000  0.0000     8.7500     8.7597     2.2496     50.5066    91.9902    94.7904    11.6181    25.7926    -999.2500  18.7054    306.4507   0.0587     0.0250     0.2842     302.2500   302.3925   2.9984     0.0206     -0.0003    0.0000     0.3337     0.0201     917.7645   1917.7644  1.8213     3.3721    
