~Version
 VERS              .         2.0                           : CWLS LOG ASCII STANDARD - VERSION 2.0
 WRAP              .         NO                            : ONE LINE PER DEPTH STEP
 DLM               .         SPACE                         : DELIMITING CHARACTER(SPACE TAB OR COMMA)
~Well Information
#_______________________________________________________________________________
#
#PARAMETER_NAME    .UNIT     VALUE                         : DESCRIPTION
#_______________________________________________________________________________
STRT               .ft       3452.0000                     : First reference value
STOP               .ft       9050.0000                     : Last reference value
STEP               .ft       0.5000                        : Step increment
NULL               .         -999.25                       : Missing value
COMP               .         University of Utah            : Company
WELL               .         FORGE 56-32 Monitor Well      : Well name
FLD                .         Wildcat                       : Field
LOC                .                                       : Location
CNTY               .                                       : County
STAT               .         Utah                          : State
CTRY               .         USA                           : Country
SRVC               .         Schlumberger                  : Service Company
DATE               .         27-Feb-2021                   : Date
API                .                                       : API number
APD                .ft       30.4                          : Elevation of Depth Reference (LMF) Above Permanent Datum
BHS                .         OPEN                          : Borehole Status (Open or Cased Hole)
BHT                .degF     306                           : Bottom Hole Temperature
BLI                .ft       9105                          : Bottom Log Interval
BS                 .in       8.75                          : Bit Size
CBDR               .ft       3100                          : Casing Bottom of Driller
CBLO               .ft       3100                          : Logger Casing Shoe Depth
CSIZ               .in       9.625                         : Current Casing Size
CWEI               .lbm/ft   36                            : Casing Weight
DCS                .         27-Feb-2021                   : Date Circulation Stopped
DFD                .lbm/gal  9                             : Drilling Fluid Density
DFT                .         WBM                           : Drilling Fluid Type
DLAB               .         27-Feb-2021                   : Date Logger At Bottom
EDF                .ft       5451.72                       : Elevation of Drill Floor
EGL                .ft       5451.72                       : Elevation of Ground Level
EKB                .ft       5482.12                       : Elevation of Kelly Bushing
EPD                .ft       5451.72                       : Elevation of Permanent Datum (PDAT) above Mean Sea Level
LMF                .         KB                            : Logging Measured From (Name of Logging Elevation Reference)
LUL                .         Fort Morgan, CO               : Logging Unit Location
LUN                .         2801                          : Logging Unit Number
LATI               .         38° 30' 14.512" N             : Latitude
LONG               .         112° 53' 11.354" W            : Longitude
MCST               .degF     68                            : Mudcake Sample Temperature
MFST               .degF     68                            : Mud Filtrate Sample Temperature
MRT                .degF     -999.25                       : Maximum Recorded Temperature
MST                .degF     68                            : Mud Sample Temperature
PDAT               .         GL                            : Permanent Datum
PRODUCER-CODE      .         440                           : 
PRODUCER-NAME      .         Schlumberger                  : 
RMB                .ohm.m    0.04781149                    : Resistivity of Mud at Bottom Hole Temperature
RMCS               .ohm.m    -999.25                       : Resistivity of Mud Cake Sample
RMFS               .ohm.m    0.15                          : Resistivity of Mud Filtrate Sample
RMS                .ohm.m    0.2                           : Resistivity of Mud Sample
RUN                .         ONE                           : Run Number
TCS                .         16_45_00                      : Time Circulation Stopped
TDD                .ft       9145                          : Driller Total Depth
TDL                .ft       9145                          : Logger Total Depth
TLAB               .         17_00_00                      : Time Logger At Bottom
TLI                .ft       3500                          : Top Log Interval
~Parameter Information Block
#_______________________________________________________________________________
#
#PARAMETER_NAME    .UNIT     VALUE                         : DESCRIPTION
#_______________________________________________________________________________
SET                .         1PnS-Aniso_DM_las             : 
TLFamily_AZIM      .         Hole Azimuth                  : 
TLFamily_BS_RM     .         Bit Size                      : 
TLFamily_C1_24     .         Caliper                       : 
TLFamily_DEVI      .         Hole Deviation                : 
TLFamily_DTCO_MPS_R .         Compressional Slowness        : 
TLFamily_DTSH_FAST .         Fast Shear Slowness           : 
TLFamily_DTSH_SLOW .         Slow Shear Slowness           : 
TLFamily_FSA_ERRMINUS .         Fast Shear Azimuth            : 
TLFamily_FSA_ERRPLUS .         Fast Shear Azimuth            : 
TLFamily_FSA_NAZ_IN .         Fast Shear Azimuth            : 
TLFamily_FSA_TOH   .         Fast Shear Azimuth            : 
TLFamily_GR_TMG    .         Gamma Ray                     : 
TLFamily_MAXXENE_OVERALL .         Acoustic Energy               : 
TLFamily_MD        .         Measured Depth                : 
TLFamily_MINXENE_OVERALL .         Acoustic Energy               : 
TLFamily_PR_Fast   .         Poisson Ratio (Dynamic)       : 
TLFamily_RB        .         Relative Bearing              : 
TLFamily_SENSOR_AZIM_QCI .         Sensor Azimuth                : 
TLFamily_SLOANI    .         Acoustic Anisotropy           : 
TLFamily_SPHI      .         Total Porosity                : 
TLFamily_TDIF_ALT_OVERALL .         Time Interval                 : 
TLFamily_TDIF_ORG_OVERALL .         Time Interval                 : 
TLFamily_TIMANI    .         Acoustic Anisotropy           : 
TLFamily_TNPH      .         Thermal Neutron Porosity      : 
TLFamily_TW_B_L6   .         Travel Time                   : 
TLFamily_TW_E_L6   .         Travel Time                   : 
TLFamily_VPVS_Fast .         VpVs (Compressional To Shear) Ratio: 
TLFamily_XENEDIF   .         Acoustic Energy               : 
~Curve Information
#_______________________________________________________________________________
#
#LOGNAME           .UNIT     LOG_ID                        : DESCRIPTION
#_______________________________________________________________________________
MD                 .ft                                     : Measured Depth 
AZIM               .deg                                    : Measured Azimuth 
BS_RM              .in                                     : Bit Size 
C1_24              .in                                     : Caliper Section 1, Pads 2-4 
DEVI               .deg                                    : Hole Deviation 
DTCO_MPS_R         .us/ft                                  : Compressional slowness 
DTSH_FAST          .us/ft                                  : Shear slowness 
DTSH_SLOW          .us/ft                                  : Shear slowness 
FSA_ERRMINUS       .deg                                    : Fast shear azimuth error minus(TOH REF90) - swapped 
FSA_ERRPLUS        .deg                                    : Fast shear azimuth error plus(TOH REF90) - swapped 
FSA_NAZ_IN         .deg                                    : Fast Shear Azimuth in Anisotropic Intervals 
FSA_TOH            .deg                                    : Fast shear azimuth(TOH REF90) - overall - swapped 
GR_TMG             .gAPI                                   : Gamma Ray 
MAXXENE_OVERALL    .unitless                               : Maximum cross energy - overall 
MINXENE_OVERALL    .unitless                               : Minimum cross energy - overall 
PR_Fast            .unitless                               : Fast Poisson's Ratio 
RB                 .deg                                    : Relative Bearing 
SENSOR_AZIM_QCI    .deg                                    : Tool azimuth for input QC 
SLOANI             .%                                      : Slowness based anisotropy 
SPHI               .ft3/ft3                                : Total porosity from Sonic 
TDIF_ALT_OVERALL   .s                                      : Arrival time difference between fast and slow waves(alternate) - overall - swapped 
TDIF_ORG_OVERALL   .s                                      : Arrival time difference between fast and slow waves(original) - overall - swapped 
TIMANI             .%                                      : Time based anisotropy 
TNPH               .ft3/ft3                                : Thermal Neutron Porosity (Ratio Method) in Selected Lithology 
TW_B_L6            .us                                     : Time window begin - packed 
TW_E_L6            .us                                     : Time window end - packed 
VPVS_Fast          .unitless                               : Fast VPVS 
XENEDIF            .unitless                               : Energy based anisotropy 
~Ascii
# ...
7924.0000  0.0000     8.7500     8.7399     2.8987     53.0861    92.3134    92.8101    162.1067   197.0466   -999.2500  179.5767   73.0859    0.0506     0.0365     0.2530     329.9900   321.9600   0.5366     0.0388     0.0000     -0.0003    -31.7499   0.0340     910.4680   1910.4680  1.7389     1.4155    
7924.5000  0.0000     8.7500     8.7946     2.9069     53.1238    92.0303    92.5918    161.5697   196.6429   -999.2500  179.1063   69.4842    0.0495     0.0364     0.2501     329.9900   322.2000   0.6083     0.0391     0.0000     -0.0003    -31.6824   0.0320     909.8917   1909.8916  1.7324     1.3077    
7925.0000  0.0000     8.7500     8.7656     3.3119     53.1674    91.4829    92.1339    161.3818   196.8263   -999.2500  179.1041   72.6358    0.0481     0.0360     0.2450     330.5000   322.4400   0.7091     0.0394     0.0000     -0.0003    -31.6102   0.0313     909.9063   1909.9063  1.7207     1.2137    
7925.5000  0.0000     8.7500     8.7744     2.9178     53.1787    90.8792    91.6960    161.5150   197.5650   -999.2500  179.5400   70.2345    0.0470     0.0355     0.2396     330.5000   322.9300   0.8948     0.0395     0.0000     -0.0003    -31.5852   0.0311     909.7356   1909.7356  1.7089     1.1510    
7926.0000  0.0000     8.7500     8.7669     3.3656     53.1351    90.2762    91.4347    72.3852    108.9837   -999.2500  90.6844    66.4327    0.0462     0.0349     0.2350     330.9600   323.4200   1.2751     0.0391     0.0000     -0.0003    -31.6083   0.0333     909.3583   1909.3584  1.6990     1.1251    
7926.5000  0.0000     8.7500     8.7182     2.6471     53.0568    89.7445    91.4152    -16.6379   20.1626    -999.2500  1.7624     81.6402    0.0458     0.0346     0.2313     330.9600   323.8100   1.8444     0.0386     0.0000     -0.0003    -31.6356   0.0336     909.0191   1909.0192  1.6915     1.1221    
7927.0000  0.0000     8.7500     8.7520     2.9086     52.9832    89.3719    91.5771    -15.7488   21.3604    -999.2500  2.8058     92.2954    0.0455     0.0346     0.2290     331.5000   324.2000   2.4373     0.0381     0.0000     -0.0003    -31.6404   0.0376     909.1594   1909.1594  1.6868     1.0865    
7927.5000  0.0000     8.7500     8.7906     3.4455     52.9075    89.1347    91.7676    -15.1594   22.8491    -999.2500  3.8448     153.0753   0.0448     0.0345     0.2280     331.5000   324.5250   2.9108     0.0375     0.0000     -0.0003    -31.6404   0.0395     909.5017   1909.5017  1.6847     1.0244    
7928.0000  0.0000     8.7500     8.7757     3.1232     52.8320    89.0147    91.9069    -14.2316   24.5933    -999.2500  5.1809     170.3265   0.0441     0.0344     0.2281     331.9700   324.8500   3.1971     0.0370     0.0000     -0.0003    -31.6846   0.0458     909.6811   1909.6812  1.6849     0.9638    
7928.5000  0.0000     8.7500     8.8222     2.8247     52.7757    89.0679    92.0784    -12.2994   27.1885    -999.2500  7.4446     171.7755   0.0435     0.0343     0.2295     331.9700   325.4600   3.3238     0.0366     0.0000     -0.0003    -31.7856   0.0453     909.8247   1909.8247  1.6877     0.9179    
7929.0000  0.0000     8.7500     8.8246     3.1760     52.7177    89.1524    92.3337    -9.1144    30.6006    10.7431    10.7431    147.8227   0.0430     0.0341     0.2312     332.3200   326.0700   3.5058     0.0362     0.0000     -0.0003    -31.9107   0.0465     909.8249   1909.8250  1.6911     0.8873    
7929.5000  0.0000     8.7500     8.7586     2.7685     52.6446    89.0188    92.5926    -4.1742    34.6900    15.2579    15.2579    170.3339   0.0428     0.0338     0.2311     332.3200   326.5400   3.9357     0.0357     0.0000     -0.0003    -32.0725   0.0445     909.9775   1909.9775  1.6909     0.8970    
7930.0000  0.0000     8.7500     8.7433     3.1546     52.5744    88.7575    92.7902    -0.1057    37.2288    18.5616    18.5616    184.8910   0.0437     0.0336     0.2297     332.5700   327.0100   4.4426     0.0352     0.0000     -0.0003    -32.2476   0.0445     909.9343   1909.9343  1.6882     1.0105    
7930.5000  0.0000     8.7500     8.7593     2.9024     52.5463    88.6146    92.8439    3.0291     38.5249    20.7770    20.7770    202.1494   0.0455     0.0338     0.2288     332.5700   327.4000   4.6615     0.0350     0.0000     -0.0003    -32.4279   0.0425     910.2483   1910.2483  1.6864     1.1751    
7931.0000  0.0000     8.7500     8.7816     2.8086     52.6244    88.6075    92.7174    6.3994     40.0400    23.2197    23.2197    185.7914   0.0468     0.0338     0.2275     333.2600   327.7900   4.5332     0.0355     0.0000     -0.0003    -32.6031   0.0426     911.3343   1911.3342  1.6838     1.3012    
7931.5000  0.0000     8.7500     8.8064     3.0604     52.8533    88.7435    92.6650    10.0026    41.4847    25.7437    25.7437    186.2417   0.0476     0.0335     0.2252     333.2600   328.3050   4.3234     0.0372     -0.0001    -0.0001    -16.2822   0.0412     912.7026   1912.7026  1.6791     1.4019    
7932.0000  0.0000     8.7500     8.8135     2.7966     53.2011    89.1457    93.0136    14.2775    42.9543    28.6159    28.6159    167.6324   0.0484     0.0330     0.2234     333.2600   328.8200   4.2467     0.0396     -0.0003    0.0000     0.1537     0.0404     913.9869   1913.9869  1.6756     1.5424    
7932.5000  0.0000     8.7500     8.7445     3.0736     53.6502    89.8228    93.7340    18.0731    44.1130    31.0930    31.0930    161.5995   0.0495     0.0324     0.2227     333.2600   329.2050   4.2616     0.0428     -0.0003    0.0000     0.2641     0.0381     915.5575   1915.5575  1.6742     1.7087    
7933.0000  0.0000     8.7500     8.7412     3.1106     54.1355    90.6339    94.4989    20.2707    44.3917    32.3312    32.3312    201.2991   0.0508     0.0322     0.2227     333.2800   329.5900   4.1754     0.0462     -0.0003    0.0000     0.3184     0.0375     916.7457   1916.7456  1.6742     1.8667    
7933.5000  0.0000     8.7500     8.7523     2.9790     54.5120    91.3735    95.0505    21.5343    44.0023    32.7683    32.7683    256.9263   0.0525     0.0322     0.2237     333.2800   329.7800   3.9448     0.0489     -0.0003    0.0000     0.3311     0.0374     917.5184   1917.5186  1.6762     2.0340    
7934.0000  0.0000     8.7500     8.7773     2.8094     54.7533    91.8511    95.3246    22.8306    43.7218    33.2762    33.2762    252.1240   0.0540     0.0321     0.2244     333.3700   329.9700   3.7114     0.0506     -0.0003    0.0000     0.3546     0.0382     918.0272   1918.0272  1.6775     2.1929    
7934.5000  0.0000     8.7500     8.8111     2.9834     54.8485    92.0052    95.3875    23.4977    43.6353    33.5665    33.5665    191.6444   0.0548     0.0320     0.2243     333.3700   329.9705   3.6098     0.0513     -0.0003    0.0000     0.3709     0.0374     917.9979   1917.9978  1.6774     2.2739    
7935.0000  0.0000     8.7500     8.8028     3.1840     54.8549    91.9855    95.1949    24.5365    43.3750    33.9557    33.9557    107.4529   0.0557     0.0314     0.2241     333.1900   329.9900   3.4292     0.0513     -0.0003    0.0000     0.3955     0.0374     918.9646   1918.9646  1.6769     2.4263    
7935.5000  0.0000     8.7500     8.7187     2.9812     54.6831    91.7008    94.8127    25.3550    43.3479    34.3515    34.3515    94.3964    0.0564     0.0308     0.2241     333.1900   329.9900   3.3369     0.0501     -0.0003    0.0000     0.4176     0.0389     918.3259   1918.3258  1.6770     2.5577    
7936.0000  0.0000     8.7500     8.7453     2.9622     54.4838    91.4635    94.6477    25.6034    43.3976    34.5005    34.5005    79.9894    0.0572     0.0306     0.2250     333.3400   330.2450   3.4218     0.0487     -0.0003    0.0000     0.4287     0.0440     918.3255   1918.3254  1.6787     2.6636    
7936.5000  0.0000     8.7500     8.7582     2.9339     54.0561    91.0073    94.3813    25.7006    43.2768    34.4887    34.4887    72.3356    0.0587     0.0302     0.2274     333.3400   330.5000   3.6399     0.0457     -0.0003    0.0000     0.4325     0.0503     918.8882   1918.8882  1.6836     2.8431    
