~Version
 VERS              .         2.0                           : CWLS LOG ASCII STANDARD - VERSION 2.0
 WRAP              .         NO                            : ONE LINE PER DEPTH STEP
 DLM               .         SPACE                         : DELIMITING CHARACTER(SPACE TAB OR COMMA)
~Well Information
#_______________________________________________________________________________
#
#PARAMETER_NAME    .UNIT     VALUE                         : DESCRIPTION
#_______________________________________________________________________________
STRT               .ft       3452.0000                     : First reference value
STOP               .ft       9050.0000                     : Last reference value
STEP               .ft       0.5000                        : Step increment
NULL               .         -999.25                       : Missing value
COMP               .         University of Utah            : Company
WELL               .         FORGE 56-32 Monitor Well      : Well name
FLD                .         Wildcat                       : Field
LOC                .                                       : Location
CNTY               .                                       : County
STAT               .         Utah                          : State
CTRY               .         USA                           : Country
SRVC               .         Schlumberger                  : Service Company
DATE               .         27-Feb-2021                   : Date
API                .                                       : API number
APD                .ft       30.4                          : Elevation of Depth Reference (LMF) Above Permanent Datum
BHS                .         OPEN                          : Borehole Status (Open or Cased Hole)
BHT                .degF     306                           : Bottom Hole Temperature
BLI                .ft       9105                          : Bottom Log Interval
BS                 .in       8.75                          : Bit Size
CBDR               .ft       3100                          : Casing Bottom of Driller
CBLO               .ft       3100                          : Logger Casing Shoe Depth
CSIZ               .in       9.625                         : Current Casing Size
CWEI               .lbm/ft   36                            : Casing Weight
DCS                .         27-Feb-2021                   : Date Circulation Stopped
DFD                .lbm/gal  9                             : Drilling Fluid Density
DFT                .         WBM                           : Drilling Fluid Type
DLAB               .         27-Feb-2021                   : Date Logger At Bottom
EDF                .ft       5451.72                       : Elevation of Drill Floor
EGL                .ft       5451.72                       : Elevation of Ground Level
EKB                .ft       5482.12                       : Elevation of Kelly Bushing
EPD                .ft       5451.72                       : Elevation of Permanent Datum (PDAT) above Mean Sea Level
LMF                .         KB                            : Logging Measured From (Name of Logging Elevation Reference)
LUL                .         Fort Morgan, CO               : Logging Unit Location
LUN                .         2801                          : Logging Unit Number
LATI               .         38° 30' 14.512" N             : Latitude
LONG               .         112° 53' 11.354" W            : Longitude
MCST               .degF     68                            : Mudcake Sample Temperature
MFST               .degF     68                            : Mud Filtrate Sample Temperature
MRT                .degF     -999.25                       : Maximum Recorded Temperature
MST                .degF     68                            : Mud Sample Temperature
PDAT               .         GL                            : Permanent Datum
PRODUCER-CODE      .         440                           : 
PRODUCER-NAME      .         Schlumberger                  : 
RMB                .ohm.m    0.04781149                    : Resistivity of Mud at Bottom Hole Temperature
RMCS               .ohm.m    -999.25                       : Resistivity of Mud Cake Sample
RMFS               .ohm.m    0.15                          : Resistivity of Mud Filtrate Sample
RMS                .ohm.m    0.2                           : Resistivity of Mud Sample
RUN                .         ONE                           : Run Number
TCS                .         16_45_00                      : Time Circulation Stopped
TDD                .ft       9145                          : Driller Total Depth
TDL                .ft       9145                          : Logger Total Depth
TLAB               .         17_00_00                      : Time Logger At Bottom
TLI                .ft       3500                          : Top Log Interval
~Parameter Information Block
#_______________________________________________________________________________
#
#PARAMETER_NAME    .UNIT     VALUE                         : DESCRIPTION
#_______________________________________________________________________________
SET                .         1PnS-Aniso_DM_las             : 
TLFamily_AZIM      .         Hole Azimuth                  : 
TLFamily_BS_RM     .         Bit Size                      : 
TLFamily_C1_24     .         Caliper                       : 
TLFamily_DEVI      .         Hole Deviation                : 
TLFamily_DTCO_MPS_R .         Compressional Slowness        : 
TLFamily_DTSH_FAST .         Fast Shear Slowness           : 
TLFamily_DTSH_SLOW .         Slow Shear Slowness           : 
TLFamily_FSA_ERRMINUS .         Fast Shear Azimuth            : 
TLFamily_FSA_ERRPLUS .         Fast Shear Azimuth            : 
TLFamily_FSA_NAZ_IN .         Fast Shear Azimuth            : 
TLFamily_FSA_TOH   .         Fast Shear Azimuth            : 
TLFamily_GR_TMG    .         Gamma Ray                     : 
TLFamily_MAXXENE_OVERALL .         Acoustic Energy               : 
TLFamily_MD        .         Measured Depth                : 
TLFamily_MINXENE_OVERALL .         Acoustic Energy               : 
TLFamily_PR_Fast   .         Poisson Ratio (Dynamic)       : 
TLFamily_RB        .         Relative Bearing              : 
TLFamily_SENSOR_AZIM_QCI .         Sensor Azimuth                : 
TLFamily_SLOANI    .         Acoustic Anisotropy           : 
TLFamily_SPHI      .         Total Porosity                : 
TLFamily_TDIF_ALT_OVERALL .         Time Interval                 : 
TLFamily_TDIF_ORG_OVERALL .         Time Interval                 : 
TLFamily_TIMANI    .         Acoustic Anisotropy           : 
TLFamily_TNPH      .         Thermal Neutron Porosity      : 
TLFamily_TW_B_L6   .         Travel Time                   : 
TLFamily_TW_E_L6   .         Travel Time                   : 
TLFamily_VPVS_Fast .         VpVs (Compressional To Shear) Ratio: 
TLFamily_XENEDIF   .         Acoustic Energy               : 
~Curve Information
#_______________________________________________________________________________
#
#LOGNAME           .UNIT     LOG_ID                        : DESCRIPTION
#_______________________________________________________________________________
MD                 .ft                                     : Measured Depth 
AZIM               .deg                                    : Measured Azimuth 
BS_RM              .in                                     : Bit Size 
C1_24              .in                                     : Caliper Section 1, Pads 2-4 
DEVI               .deg                                    : Hole Deviation 
DTCO_MPS_R         .us/ft                                  : Compressional slowness 
DTSH_FAST          .us/ft                                  : Shear slowness 
DTSH_SLOW          .us/ft                                  : Shear slowness 
FSA_ERRMINUS       .deg                                    : Fast shear azimuth error minus(TOH REF90) - swapped 
FSA_ERRPLUS        .deg                                    : Fast shear azimuth error plus(TOH REF90) - swapped 
FSA_NAZ_IN         .deg                                    : Fast Shear Azimuth in Anisotropic Intervals 
FSA_TOH            .deg                                    : Fast shear azimuth(TOH REF90) - overall - swapped 
GR_TMG             .gAPI                                   : Gamma Ray 
MAXXENE_OVERALL    .unitless                               : Maximum cross energy - overall 
MINXENE_OVERALL    .unitless                               : Minimum cross energy - overall 
PR_Fast            .unitless                               : Fast Poisson's Ratio 
RB                 .deg                                    : Relative Bearing 
SENSOR_AZIM_QCI    .deg                                    : Tool azimuth for input QC 
SLOANI             .%                                      : Slowness based anisotropy 
SPHI               .ft3/ft3                                : Total porosity from Sonic 
TDIF_ALT_OVERALL   .s                                      : Arrival time difference between fast and slow waves(alternate) - overall - swapped 
TDIF_ORG_OVERALL   .s                                      : Arrival time difference between fast and slow waves(original) - overall - swapped 
TIMANI             .%                                      : Time based anisotropy 
TNPH               .ft3/ft3                                : Thermal Neutron Porosity (Ratio Method) in Selected Lithology 
TW_B_L6            .us                                     : Time window begin - packed 
TW_E_L6            .us                                     : Time window end - packed 
VPVS_Fast          .unitless                               : Fast VPVS 
XENEDIF            .unitless                               : Energy based anisotropy 
~Ascii
# ...
6806.0000  0.0000     8.7500     8.7393     2.0248     53.3920    91.2534    93.3882    99.2484    127.7753   -999.2500  113.5118   183.3902   0.0276     0.0185     0.2397     300.7000   302.4400   2.3124     0.0410     -0.0003    0.0000     0.1813     0.0321     934.1144   1934.1144  1.7091     0.9117    
6806.5000  0.0000     8.7500     8.7414     2.0812     53.3924    91.4099    93.2462    99.2729    127.1403   -999.2500  113.2066   171.8345   0.0278     0.0182     0.2411     300.7000   302.2300   1.9889     0.0410     -0.0003    0.0000     0.1857     0.0322     934.2153   1934.2153  1.7120     0.9583    
6807.0000  0.0000     8.7500     8.7375     1.8474     53.3614    91.5593    93.1603    99.2404    126.4920   -999.2500  112.8662   181.1392   0.0280     0.0180     0.2428     299.8100   302.0800   1.7335     0.0407     -0.0003    0.0000     0.1880     0.0326     933.8134   1933.8135  1.7158     1.0055    
6807.5000  0.0000     8.7500     8.7357     1.9501     53.3326    91.5782    93.1566    99.3819    125.6945   -999.2500  112.5382   176.4869   0.0283     0.0177     0.2434     299.8100   301.9300   1.7088     0.0405     -0.0003    0.0000     0.1864     0.0324     933.1147   1933.1147  1.7171     1.0597    
6808.0000  0.0000     8.7500     8.7309     1.9274     53.3107    91.5074    93.2009    99.6295    124.8822   -999.2500  112.2558   186.8418   0.0286     0.0174     0.2431     298.8000   301.6750   1.8338     0.0404     -0.0003    0.0000     0.1829     0.0322     932.8837   1932.8837  1.7165     1.1174    
6808.5000  0.0000     8.7500     8.7301     1.9015     53.2708    91.4328    93.2424    99.5860    124.1627   -999.2500  111.8743   173.4854   0.0287     0.0173     0.2431     298.8000   301.4200   1.9598     0.0401     -0.0003    0.0000     0.1793     0.0317     932.9223   1932.9224  1.7164     1.1491    
6809.0000  0.0000     8.7500     8.7282     2.0264     53.1453    91.3226    93.2252    99.5379    123.3859   -999.2500  111.4619   165.5315   0.0288     0.0171     0.2440     297.5700   301.0600   2.0618     0.0392     -0.0003    0.0000     0.1738     0.0328     932.9140   1932.9141  1.7184     1.1718    
6809.5000  0.0000     8.7500     8.7291     1.6895     52.9582    91.1277    93.1329    99.4198    122.5649   -999.2500  110.9924   166.5819   0.0289     0.0169     0.2450     297.5700   300.7000   2.1765     0.0379     -0.0003    0.0000     0.1692     0.0337     932.7837   1932.7837  1.7207     1.1983    
6810.0000  0.0000     8.7500     8.7310     1.8422     52.9869    90.9669    93.0284    99.1679    121.7560   -999.2500  110.4619   173.1852   0.0290     0.0168     0.2432     297.2400   300.2550   2.2408     0.0381     -0.0003    0.0000     0.1658     0.0344     932.8723   1932.8722  1.7168     1.2203    
6810.5000  0.0000     8.7500     8.7291     1.8211     53.2279    91.0650    92.9770    98.9135    120.8171   -999.2500  109.8653   193.2952   0.0290     0.0166     0.2405     297.2400   299.8100   2.0778     0.0398     -0.0003    0.0000     0.1632     0.0347     932.8655   1932.8655  1.7109     1.2438    
6811.0000  0.0000     8.7500     8.7281     1.8226     53.3620    91.4477    92.9611    98.6398    119.8382   -999.2500  109.2390   187.4122   0.0289     0.0163     0.2418     296.6900   299.3050   1.6414     0.0407     -0.0003    0.0000     0.1644     0.0336     932.6550   1932.6550  1.7137     1.2608    
6811.5000  0.0000     8.7500     8.7307     1.6763     53.3481    91.8625    92.9171    98.3289    118.8110   -999.2500  108.5700   192.3946   0.0289     0.0161     0.2456     296.6900   298.8000   1.1414     0.0407     -0.0003    0.0000     0.1706     0.0327     932.6586   1932.6586  1.7219     1.2759    
6812.0000  0.0000     8.7500     8.7318     1.7978     53.2115    92.0759    92.8048    97.9737    117.6211   -999.2500  107.7974   195.0961   0.0288     0.0160     0.2493     295.9500   298.1850   0.7886     0.0397     -0.0003    0.0000     0.1798     0.0311     932.9926   1932.9926  1.7304     1.2852    
6812.5000  0.0000     8.7500     8.7292     1.7101     53.0406    92.0926    92.6348    97.6712    116.4522   -999.2500  107.0617   184.8910   0.0287     0.0158     0.2518     295.9500   297.5700   0.5870     0.0385     -0.0003    0.0000     0.1907     0.0316     932.8784   1932.8784  1.7363     1.2878    
6813.0000  0.0000     8.7500     8.7300     1.6848     53.0576    92.0512    92.4783    97.2203    115.5838   -999.2500  106.4020   168.8830   0.0285     0.0157     0.2512     295.2400   297.4050   0.4630     0.0386     -0.0003    0.0000     0.2032     0.0312     932.4862   1932.4862  1.7349     1.2838    
6813.5000  0.0000     8.7500     8.7280     1.8318     53.0584    92.0362    92.4170    96.9459    115.2763   -999.2500  106.1111   177.6875   0.0285     0.0157     0.2511     295.2400   297.2400   0.4129     0.0386     -0.0003    0.0000     0.2089     0.0315     932.4045   1932.4044  1.7346     1.2778    
6814.0000  0.0000     8.7500     8.7283     1.6127     52.9695    92.1396    92.4426    96.5935    114.5331   -999.2500  105.5633   162.8802   0.0283     0.0156     0.2532     294.5700   297.2400   0.3283     0.0380     -0.0003    0.0000     0.2196     0.0309     932.5947   1932.5947  1.7395     1.2753    
6814.5000  0.0000     8.7500     8.7282     1.8409     52.7776    92.2589    92.5150    96.3656    114.1161   -999.2500  105.2409   185.7313   0.0284     0.0156     0.2568     294.5700   296.9650   0.2772     0.0366     -0.0003    0.0000     0.2264     0.0320     932.6830   1932.6830  1.7481     1.2816    
6815.0000  0.0000     8.7500     8.7288     1.9085     52.5570    92.4433    92.6385    95.8626    113.3325   -999.2500  104.5976   205.3010   0.0285     0.0156     0.2612     294.1700   296.6900   0.2109     0.0351     -0.0003    0.0000     0.2417     0.0326     932.5160   1932.5161  1.7589     1.2907    
6815.5000  0.0000     8.7500     8.7292     1.7023     52.4970    92.4698    92.6910    95.3750    112.7133   -999.2500  104.0442   214.5056   0.0284     0.0155     0.2622     294.1700   296.3200   0.2389     0.0346     -0.0003    0.0000     0.2560     0.0316     932.2255   1932.2255  1.7614     1.2906    
6816.0000  0.0000     8.7500     8.7288     1.8296     52.3927    92.3635    92.7099    94.6822    112.1321   -999.2500  103.4072   216.5565   0.0286     0.0157     0.2628     293.9000   295.9500   0.3743     0.0339     -0.0003    0.0000     0.2674     0.0320     931.8903   1931.8903  1.7629     1.2884    
6816.5000  0.0000     8.7500     8.7276     1.5739     52.4316    92.2699    92.7787    94.0385    111.5562   -999.2500  102.7973   237.2667   0.0288     0.0158     0.2616     293.9000   295.5950   0.5500     0.0342     -0.0003    0.0000     0.2768     0.0312     931.5972   1931.5972  1.7598     1.2969    
6817.0000  0.0000     8.7500     8.7295     1.5851     52.6724    92.2486    92.8700    93.5641    110.9718   -999.2500  102.2679   228.7126   0.0290     0.0159     0.2581     293.6500   295.2400   0.6714     0.0359     -0.0003    0.0000     0.2833     0.0330     931.7950   1931.7949  1.7514     1.3164    
6817.5000  0.0000     8.7500     8.7349     1.7742     52.8533    92.2713    92.9462    92.9085    110.5421   -999.2500  101.7253   226.0112   0.0292     0.0160     0.2558     293.6500   294.9050   0.7287     0.0372     -0.0003    0.0000     0.2902     0.0321     932.0248   1932.0248  1.7458     1.3250    
6818.0000  0.0000     8.7500     8.7325     1.6559     52.9426    92.2943    93.0356    92.3169    110.3436   -999.2500  101.3302   180.5688   0.0292     0.0160     0.2548     293.5100   294.5700   0.8000     0.0378     -0.0003    0.0000     0.2978     0.0337     932.0492   1932.0492  1.7433     1.3207    
6818.5000  0.0000     8.7500     8.7324     1.8047     53.0192    92.3198    93.1443    91.7745    110.1645   -999.2500  100.9695   201.2991   0.0292     0.0161     0.2539     293.5100   294.3700   0.8891     0.0383     -0.0003    0.0000     0.3050     0.0338     932.4250   1932.4250  1.7413     1.3119    
