~Version
 VERS              .         2.0                           : CWLS LOG ASCII STANDARD - VERSION 2.0
 WRAP              .         NO                            : ONE LINE PER DEPTH STEP
 DLM               .         SPACE                         : DELIMITING CHARACTER(SPACE TAB OR COMMA)
~Well Information
#_______________________________________________________________________________
#
#PARAMETER_NAME    .UNIT     VALUE                         : DESCRIPTION
#_______________________________________________________________________________
STRT               .ft       3452.0000                     : First reference value
STOP               .ft       9050.0000                     : Last reference value
STEP               .ft       0.5000                        : Step increment
NULL               .         -999.25                       : Missing value
COMP               .         University of Utah            : Company
WELL               .         FORGE 56-32 Monitor Well      : Well name
FLD                .         Wildcat                       : Field
LOC                .                                       : Location
CNTY               .                                       : County
STAT               .         Utah                          : State
CTRY               .         USA                           : Country
SRVC               .         Schlumberger                  : Service Company
DATE               .         27-Feb-2021                   : Date
API                .                                       : API number
APD                .ft       30.4                          : Elevation of Depth Reference (LMF) Above Permanent Datum
BHS                .         OPEN                          : Borehole Status (Open or Cased Hole)
BHT                .degF     306                           : Bottom Hole Temperature
BLI                .ft       9105                          : Bottom Log Interval
BS                 .in       8.75                          : Bit Size
CBDR               .ft       3100                          : Casing Bottom of Driller
CBLO               .ft       3100                          : Logger Casing Shoe Depth
CSIZ               .in       9.625                         : Current Casing Size
CWEI               .lbm/ft   36                            : Casing Weight
DCS                .         27-Feb-2021                   : Date Circulation Stopped
DFD                .lbm/gal  9                             : Drilling Fluid Density
DFT                .         WBM                           : Drilling Fluid Type
DLAB               .         27-Feb-2021                   : Date Logger At Bottom
EDF                .ft       5451.72                       : Elevation of Drill Floor
EGL                .ft       5451.72                       : Elevation of Ground Level
EKB                .ft       5482.12                       : Elevation of Kelly Bushing
EPD                .ft       5451.72                       : Elevation of Permanent Datum (PDAT) above Mean Sea Level
LMF                .         KB                            : Logging Measured From (Name of Logging Elevation Reference)
LUL                .         Fort Morgan, CO               : Logging Unit Location
LUN                .         2801                          : Logging Unit Number
LATI               .         38° 30' 14.512" N             : Latitude
LONG               .         112° 53' 11.354" W            : Longitude
MCST               .degF     68                            : Mudcake Sample Temperature
MFST               .degF     68                            : Mud Filtrate Sample Temperature
MRT                .degF     -999.25                       : Maximum Recorded Temperature
MST                .degF     68                            : Mud Sample Temperature
PDAT               .         GL                            : Permanent Datum
PRODUCER-CODE      .         440                           : 
PRODUCER-NAME      .         Schlumberger                  : 
RMB                .ohm.m    0.04781149                    : Resistivity of Mud at Bottom Hole Temperature
RMCS               .ohm.m    -999.25                       : Resistivity of Mud Cake Sample
RMFS               .ohm.m    0.15                          : Resistivity of Mud Filtrate Sample
RMS                .ohm.m    0.2                           : Resistivity of Mud Sample
RUN                .         ONE                           : Run Number
TCS                .         16_45_00                      : Time Circulation Stopped
TDD                .ft       9145                          : Driller Total Depth
TDL                .ft       9145                          : Logger Total Depth
TLAB               .         17_00_00                      : Time Logger At Bottom
TLI                .ft       3500                          : Top Log Interval
~Parameter Information Block
#_______________________________________________________________________________
#
#PARAMETER_NAME    .UNIT     VALUE                         : DESCRIPTION
#_______________________________________________________________________________
SET                .         1PnS-Aniso_DM_las             : 
TLFamily_AZIM      .         Hole Azimuth                  : 
TLFamily_BS_RM     .         Bit Size                      : 
TLFamily_C1_24     .         Caliper                       : 
TLFamily_DEVI      .         Hole Deviation                : 
TLFamily_DTCO_MPS_R .         Compressional Slowness        : 
TLFamily_DTSH_FAST .         Fast Shear Slowness           : 
TLFamily_DTSH_SLOW .         Slow Shear Slowness           : 
TLFamily_FSA_ERRMINUS .         Fast Shear Azimuth            : 
TLFamily_FSA_ERRPLUS .         Fast Shear Azimuth            : 
TLFamily_FSA_NAZ_IN .         Fast Shear Azimuth            : 
TLFamily_FSA_TOH   .         Fast Shear Azimuth            : 
TLFamily_GR_TMG    .         Gamma Ray                     : 
TLFamily_MAXXENE_OVERALL .         Acoustic Energy               : 
TLFamily_MD        .         Measured Depth                : 
TLFamily_MINXENE_OVERALL .         Acoustic Energy               : 
TLFamily_PR_Fast   .         Poisson Ratio (Dynamic)       : 
TLFamily_RB        .         Relative Bearing              : 
TLFamily_SENSOR_AZIM_QCI .         Sensor Azimuth                : 
TLFamily_SLOANI    .         Acoustic Anisotropy           : 
TLFamily_SPHI      .         Total Porosity                : 
TLFamily_TDIF_ALT_OVERALL .         Time Interval                 : 
TLFamily_TDIF_ORG_OVERALL .         Time Interval                 : 
TLFamily_TIMANI    .         Acoustic Anisotropy           : 
TLFamily_TNPH      .         Thermal Neutron Porosity      : 
TLFamily_TW_B_L6   .         Travel Time                   : 
TLFamily_TW_E_L6   .         Travel Time                   : 
TLFamily_VPVS_Fast .         VpVs (Compressional To Shear) Ratio: 
TLFamily_XENEDIF   .         Acoustic Energy               : 
~Curve Information
#_______________________________________________________________________________
#
#LOGNAME           .UNIT     LOG_ID                        : DESCRIPTION
#_______________________________________________________________________________
MD                 .ft                                     : Measured Depth 
AZIM               .deg                                    : Measured Azimuth 
BS_RM              .in                                     : Bit Size 
C1_24              .in                                     : Caliper Section 1, Pads 2-4 
DEVI               .deg                                    : Hole Deviation 
DTCO_MPS_R         .us/ft                                  : Compressional slowness 
DTSH_FAST          .us/ft                                  : Shear slowness 
DTSH_SLOW          .us/ft                                  : Shear slowness 
FSA_ERRMINUS       .deg                                    : Fast shear azimuth error minus(TOH REF90) - swapped 
FSA_ERRPLUS        .deg                                    : Fast shear azimuth error plus(TOH REF90) - swapped 
FSA_NAZ_IN         .deg                                    : Fast Shear Azimuth in Anisotropic Intervals 
FSA_TOH            .deg                                    : Fast shear azimuth(TOH REF90) - overall - swapped 
GR_TMG             .gAPI                                   : Gamma Ray 
MAXXENE_OVERALL    .unitless                               : Maximum cross energy - overall 
MINXENE_OVERALL    .unitless                               : Minimum cross energy - overall 
PR_Fast            .unitless                               : Fast Poisson's Ratio 
RB                 .deg                                    : Relative Bearing 
SENSOR_AZIM_QCI    .deg                                    : Tool azimuth for input QC 
SLOANI             .%                                      : Slowness based anisotropy 
SPHI               .ft3/ft3                                : Total porosity from Sonic 
TDIF_ALT_OVERALL   .s                                      : Arrival time difference between fast and slow waves(alternate) - overall - swapped 
TDIF_ORG_OVERALL   .s                                      : Arrival time difference between fast and slow waves(original) - overall - swapped 
TIMANI             .%                                      : Time based anisotropy 
TNPH               .ft3/ft3                                : Thermal Neutron Porosity (Ratio Method) in Selected Lithology 
TW_B_L6            .us                                     : Time window begin - packed 
TW_E_L6            .us                                     : Time window end - packed 
VPVS_Fast          .unitless                               : Fast VPVS 
XENEDIF            .unitless                               : Energy based anisotropy 
~Ascii
# ...
9042.0000  0.0000     8.7500     8.6987     1.9181     -999.2500  -999.2500  -999.2500  64.6879    106.5765   -999.2500  85.6322    91.8452    0.0385     0.0342     -999.2500  -999.2500  351.3300   -999.2500  -999.2500  -0.0003    0.0000     0.6904     0.0246     927.7015   1927.7015  -999.2500  0.4280    
9042.5000  0.0000     8.7500     8.6560     1.9181     -999.2500  -999.2500  -999.2500  63.9029    106.0689   -999.2500  84.9859    91.8452    0.0399     0.0353     -999.2500  -999.2500  351.3300   -999.2500  -999.2500  -0.0003    0.0000     0.6829     0.0246     927.7235   1927.7235  -999.2500  0.4545    
9043.0000  0.0000     8.7500     8.6835     1.9181     -999.2500  -999.2500  -999.2500  63.3471    105.4394   -999.2500  84.3933    91.8452    0.0409     0.0362     -999.2500  -999.2500  351.3300   -999.2500  -999.2500  -0.0003    0.0000     0.6821     0.0246     927.7535   1927.7535  -999.2500  0.4687    
9043.5000  0.0000     8.7500     8.6887     1.9181     -999.2500  -999.2500  -999.2500  62.2984    104.8865   -999.2500  83.5924    91.8452    0.0410     0.0364     -999.2500  -999.2500  351.3300   -999.2500  -999.2500  -0.0003    0.0000     0.6580     0.0246     927.7997   1927.7998  -999.2500  0.4531    
9044.0000  0.0000     8.7500     8.6897     1.9181     -999.2500  -999.2500  -999.2500  61.6891    104.6646   -999.2500  83.1768    91.8452    0.0415     0.0373     -999.2500  -999.2500  351.3300   -999.2500  -999.2500  -0.0003    0.0000     0.6441     0.0246     927.8586   1927.8586  -999.2500  0.4148    
9044.5000  0.0000     8.7500     8.6595     1.9181     -999.2500  -999.2500  -999.2500  60.8783    104.3613   -999.2500  82.6198    91.8452    0.0421     0.0382     -999.2500  -999.2500  351.3300   -999.2500  -999.2500  -0.0003    0.0000     0.6035     0.0246     927.9092   1927.9092  -999.2500  0.3893    
9045.0000  0.0000     8.7500     8.6442     1.9181     -999.2500  -999.2500  -999.2500  63.2133    106.6633   -999.2500  84.9383    91.8452    0.0425     0.0385     -999.2500  -999.2500  351.3300   -999.2500  -999.2500  -0.0003    0.0000     0.6408     0.0246     927.9427   1927.9426  -999.2500  0.3990    
9045.5000  0.0000     8.7500     8.6451     1.9181     -999.2500  -999.2500  -999.2500  65.3878    108.7994   -999.2500  87.0936    91.8452    0.0430     0.0388     -999.2500  -999.2500  351.3300   -999.2500  -999.2500  -0.0003    0.0000     0.6729     0.0246     927.9456   1927.9456  -999.2500  0.4185    
9046.0000  0.0000     8.7500     8.6659     1.9181     -999.2500  -999.2500  -999.2500  64.0693    107.7015   -999.2500  85.8854    91.8452    0.0432     0.0392     -999.2500  -999.2500  351.3300   -999.2500  -999.2500  -0.0003    0.0000     0.6101     0.0246     927.9429   1927.9429  -999.2500  0.4034    
9046.5000  0.0000     8.7500     8.7082     1.9181     -999.2500  -999.2500  -999.2500  63.2204    107.1263   -999.2500  85.1734    91.8452    0.0436     0.0400     -999.2500  -999.2500  351.3300   -999.2500  -999.2500  -0.0003    0.0000     0.5497     0.0246     927.9582   1927.9583  -999.2500  0.3635    
9047.0000  0.0000     8.7500     8.7333     1.9181     -999.2500  -999.2500  -999.2500  62.5815    106.6833   -999.2500  84.6324    91.8452    0.0441     0.0408     -999.2500  -999.2500  -999.2500  -999.2500  -999.2500  -0.0003    0.0000     0.4937     0.0246     927.9658   1927.9658  -999.2500  0.3336    
9047.5000  0.0000     8.7500     8.7475     1.9181     -999.2500  -999.2500  -999.2500  59.5961    104.1510   -999.2500  81.8736    91.8452    0.0442     0.0414     -999.2500  -999.2500  -999.2500  -999.2500  -999.2500  -0.0003    0.0000     0.3728     0.0246     927.9658   1927.9658  -999.2500  0.2887    
9048.0000  0.0000     8.7500     8.6928     1.9181     -999.2500  -999.2500  -999.2500  147.1078   192.2892   -999.2500  169.6985   91.8452    0.0440     0.0418     -999.2500  -999.2500  -999.2500  -999.2500  -999.2500  0.0000     -0.0003    -30.3393   0.0246     927.9658   1927.9658  -999.2500  0.2225    
9048.5000  0.0000     8.7500     8.6793     1.9181     -999.2500  -999.2500  -999.2500  143.8723   189.5294   -999.2500  166.7009   91.8452    0.0439     0.0422     -999.2500  -999.2500  -999.2500  -999.2500  -999.2500  0.0000     -0.0003    -30.4772   0.0246     927.9658   1927.9658  -999.2500  0.1633    
9049.0000  0.0000     8.7500     8.7050     1.9181     -999.2500  -999.2500  -999.2500  -999.2500  -999.2500  -999.2500  -999.2500  91.8452    -999.2500  -999.2500  -999.2500  -999.2500  -999.2500  -999.2500  -999.2500  -999.2500  -999.2500  -999.2500  0.0246     -999.2500  -999.2500  -999.2500  -999.2500 
9049.5000  0.0000     8.7500     8.7122     1.9181     -999.2500  -999.2500  -999.2500  -999.2500  -999.2500  -999.2500  -999.2500  91.8452    -999.2500  -999.2500  -999.2500  -999.2500  -999.2500  -999.2500  -999.2500  -999.2500  -999.2500  -999.2500  0.0246     -999.2500  -999.2500  -999.2500  -999.2500 
9050.0000  0.0000     8.7500     8.6893     1.9181     -999.2500  -999.2500  -999.2500  -999.2500  -999.2500  -999.2500  -999.2500  91.8452    -999.2500  -999.2500  -999.2500  -999.2500  -999.2500  -999.2500  -999.2500  -999.2500  -999.2500  -999.2500  0.0246     -999.2500  -999.2500  -999.2500  -999.2500 
